     2.10           OBSERVATION DATA    G (GPS)             RINEX VERSION / TYPE
DAT2RINW 3.10 001   ±èÀÌ´ö              26AUG04 15:30:17    PGM / RUN BY / DATE 
±èÀÌ´ö              Ãø·®±â¼ú¼¾ÅÍ                            OBSERVER / AGENCY   
220320062           Unknown!            Nav 1.30 Sig 1.30   REC # / TYPE / VERS 
00000000            UNKNOWN                                 ANT # / TYPE        
----------------------------------------------------------- COMMENT             
Offset from BOTTOM OF ANTENNA to PHASE CENTER is   0.0 mm   COMMENT             
----------------------------------------------------------- COMMENT             
00620440                                                    MARKER NAME         
0062                                                        MARKER NUMBER       
 -3055110.3863  4059491.9015  3843009.3500                  APPROX POSITION XYZ 
        0.0000        0.0000        0.0000                  ANTENNA: DELTA H/E/N
*** Above antenna height is from mark to BOTTOM OF ANTENNA. COMMENT             
----------------------------------------------------------- COMMENT             
Note: The above offsets are NOT corrected.                  COMMENT             
----------------------------------------------------------- COMMENT             
     1     1     0                                          WAVELENGTH FACT L1/2
     4    L1    C1    L2    P2                              # / TYPES OF OBSERV 
    15.000                                                  INTERVAL            
  2004     2    13     2    49   30.0000000                 TIME OF FIRST OBS   
  2004     2    13     7     4   30.0000000                 TIME OF LAST OBS    
     0                                                      RCV CLOCK OFFS APPL 
    13                                                      # OF SATELLITES     
     1   209   209   209   209                              PRN / # OF OBS      
     2    85    85    85    85                              PRN / # OF OBS      
     3   121   121   121   121                              PRN / # OF OBS      
     4   525   525   525   525                              PRN / # OF OBS      
     7   836   838   838   838                              PRN / # OF OBS      
     8   529   534   481   481                              PRN / # OF OBS      
    11   905   905   905   905                              PRN / # OF OBS      
    13    95    95    95    95                              PRN / # OF OBS      
    20   904   904   904   904                              PRN / # OF OBS      
    24   112   117    97    97                              PRN / # OF OBS      
    27   343   345   320   320                              PRN / # OF OBS      
    28  1021  1021  1021  1021                              PRN / # OF OBS      
    31   559   559   559   559                              PRN / # OF OBS      
                                                            END OF HEADER       
 04  2 13  2 49 30.0000000  0  7  2  3  8 11 27 28 31
     22129.17216  23381218.82006     10304.10556  23381222.10546
     22021.03516  23372934.06306     10135.24757  23372934.59847
   -129590.21117  21271252.17207    -90253.13158  21271250.99648
   -155055.22317  20220795.31307   -109762.58558  20220792.69948
    -33733.98017  21035570.43007    -26745.51358  21035569.52048
   -234547.44916  23669104.75006   -165583.33156  23669104.09846
    -28001.13717  20602632.42207    -23009.81258  20602630.38348
 04  2 13  2 49 44.9990000  0  7  2  3  8 11 27 28 31
     29235.12106  23382571.01106     15841.12346  23382574.40146
     28948.43806  23374252.36206     15533.19047  23374253.12047
   -172442.91007  21263098.26107   -123644.84748  21263096.47648
   -206372.90207  20211029.62807   -149750.37849  20211026.89749
    -44979.14507  21033430.55007    -35507.98148  21033429.97648
   -314819.65606  23653829.47906   -228133.07247  23653829.18747
    -37468.91007  20600830.47907    -30387.31648  20600828.88648
 04  2 13  2 49 59.9990000  0  7  2  3  8 11 27 28 31
     36395.07006  23383934.28406     21420.24246  23383936.33146
     35877.23006  23375570.26906     20932.16447  23375571.80447
   -215147.91407  21254971.29207   -156921.49748  21254970.15548
   -257575.22307  20201286.35407   -189648.29948  20201283.66748
    -56105.32407  21031313.58907    -44177.75748  21031312.57348
   -395099.50805  23638552.10405   -290688.77047  23638552.69047
    -46890.12507  20599037.77607    -37728.53448  20599035.78848
 04  2 13  2 50 14.9990000  0  7  2  3  8 11 27 28 31
     43629.87506  23385310.58906     27057.64046  23385313.67946
     42828.30906  23376892.95606     26348.57346  23376894.37046
   -257680.91407  21246877.60407   -190064.09948  21246876.58548
   -308637.16407  20191569.36207   -229436.80949  20191566.66349
    -67090.71507  21029222.88607    -52737.79848  21029222.03448
   -475360.01605  23623278.81505   -353229.41147  23623280.01147
    -56242.82407  20597258.19807    -45016.36848  20597255.96048
 04  2 13  2 50 29.9990000  0  7  2  3  8 11 27 28 31
     50944.52305  23386702.44005     32757.29246  23386704.77246
     49806.81605  23378220.67505     31786.33646  23378222.22946
   -300036.59007  21238817.35407   -223068.51848  21238816.69048
   -359553.51207  20181880.39407   -269111.87548  20181878.33148
    -77930.19507  21027159.77607    -61184.17848  21027159.17948
   -555595.99605  23608010.82305   -415750.89647  23608011.68347
    -65522.00807  20595492.59707    -52246.90748  20595490.26548
 04  2 13  2 50 44.9990000  0  7  2  3  8 11 27 28 31
     58339.47704  23388109.72204     38519.49546  23388112.43746
     56813.07005  23379554.25305     37245.73946  23379555.62446
   -342214.42207  21230791.73707   -255934.35948  21230790.49948
   -410323.75007  20172219.26107   -308673.08648  20172216.71048
    -88623.62107  21025125.26107    -69516.73348  21025124.60848
   -635806.68005  23592746.87005   -478252.69147  23592747.67947
    -74727.28507  20593740.88607    -59419.87048  20593738.47248
 04  2 13  2 50 59.9990000  0  7  2  3  8 11 27 28 31
     65814.94906  23389531.92506     44344.43746  23389534.26546
     63847.59406  23380892.60406     42727.11646  23380893.70246
   -384213.80507  21222799.04207   -288661.16848  21222797.81248
   -460947.32007  20162585.77607   -348120.01648  20162583.21448
    -99170.69507  21023117.87007    -77735.25948  21023118.00748
   -715991.28105  23577488.29205   -540734.18047  23577488.63647
    -83858.24607  20592003.20607    -66534.92148  20592000.80848
 04  2 13  2 51 14.9990000  0  7  2  3  8 11 27 28 31
     73371.34406  23390970.51906     50232.46347  23390971.80847
     70910.80906  23382236.22906     48230.86346  23382237.85846
   -426034.27707  21214840.72207   -321248.54348  21214839.85848
   -511423.78507  20152980.40907   -387452.32348  20152977.76948
   -109571.27707  21021139.00307    -85839.64248  21021139.14048
   -796149.32806  23562235.25306   -603194.99247  23562235.32747
    -92914.71907  20590279.87007    -73591.92248  20590277.69848
 04  2 13  2 51 29.9990000  0  7  2  3  8 11 27 28 31
     81006.32406  23392423.73706     56181.68147  23392425.14047
     78000.39106  23383585.75306     53755.14247  23383587.12047
   -467678.12907  21206916.02607   -353698.29848  21206915.44048
   -561755.29307  20143402.65907   -426671.67348  20143399.89448
   -119827.92607  21019187.03407    -93831.84948  21019187.05048
   -876282.83205  23546985.58105   -665636.64947  23546986.56547
   -101899.06607  20588570.08907    -80592.72148  20588568.01548
 04  2 13  2 51 44.9990000  0  7  2  3  8 11 27 28 31
     88719.44906  23393890.93306     62191.83446  23393893.08546
     85115.89506  23384940.55806     59299.64246  23384940.52246
   -509145.38307  21199024.75307   -386010.45048  21199024.08148
   -611942.05907  20133852.20607   -465778.23648  20133849.50748
   -129941.07806  21017262.44006   -101712.24448  21017262.07348
   -956391.82805  23531741.65105   -728059.21346  23531741.72946
   -110811.63307  20586873.69807    -87537.58048  20586872.09748
 04  2 13  2 51 59.9990000  0  7  2  3  8 11 27 28 31
     96508.73406  23395373.07306     68261.28546  23395375.51546
     92255.43006  23386298.47906     64862.88547  23386298.98747
   -550437.96107  21191167.31507   -418186.49648  21191166.26948
   -661985.77007  20124329.69807   -504773.33948  20124326.62448
   -139912.96907  21015365.01907   -109482.56348  21015364.23748
  -1036477.95305  23516501.62005   -790463.94246  23516501.71046
   -119654.35207  20585191.30007    -94428.01648  20585189.31948
 04  2 13  2 52 14.9990000  0  7  2  3  8 11 27 28 31
    104372.02306  23396869.98706     74388.44646  23396872.15146
     99416.91806  23387661.69006     70443.18046  23387662.11246
   -591557.84807  21183342.78407   -450227.96748  21183341.73348
   -711888.66807  20114833.13607   -543658.70348  20114830.62048
   -149745.67206  21013494.19006   -117144.43147  21013493.41747
  -1116543.12105  23501265.47205   -852852.36446  23501265.86646
   -128429.42207  20583521.27607   -101265.75248  20583519.96448
 04  2 13  2 52 29.9990000  0  7  2  3  8 11 27 28 31
    112308.34806  23398380.69006     80572.50646  23398382.37846
    106599.42205  23389028.66705     76039.91347  23389028.94047
   -632505.76607  21175550.76107   -482135.44848  21175549.53448
   -761651.41807  20105363.81507   -582434.87048  20105361.24548
   -159440.47306  21011649.30006   -124698.83947  21011647.94047
  -1196587.87505  23486033.76905   -915224.88347  23486033.21847
   -137137.75807  20581864.42507   -108051.47748  20581862.73348
 04  2 13  2 52 44.9990000  0  7  2  3  8 11 27 28 31
    120317.23006  23399904.34706     86813.09146  23399906.47246
    113802.46905  23390399.50305     81652.59846  23390399.40146
   -673282.04707  21167791.60407   -513909.16648  21167789.75348
   -811274.29307  20095920.88607   -621102.03748  20095918.33148
   -168997.84806  21009830.83106   -132146.16547  21009829.66347
  -1276612.48006  23470805.63606   -977581.69647  23470805.14747
   -145779.91807  20580219.72207   -114785.63148  20580217.99548
 04  2 13  2 52 59.9990000  0  7  2  3  8 11 27 28 31
    128396.06306  23401441.63606     93108.22246  23401444.22646
    121023.66006  23391773.47906     87279.47446  23391773.67946
   -713889.05507  21160064.25307   -545550.98348  21160062.52248
   -860759.82407  20086503.82307   -659662.16948  20086501.31948
   -178420.62106  21008037.32306   -139488.58547  21008036.70647
  -1356619.22705  23455581.05005  -1039924.56646  23455579.88646
   -154358.48807  20578587.46407   -121470.25348  20578585.50748
 04  2 13  2 53 14.9990000  0  7  2  3  8 11 27 28 31
    136543.97306  23402991.82306     99457.08346  23402994.89046
    128262.20306  23393151.22206     92919.87747  23393151.28447
   -754327.77007  21152368.72207   -577061.66748  21152367.58948
   -910108.75407  20077112.74507   -698115.87548  20077110.54648
   -187709.73405  21006269.79205   -146726.88547  21006269.06947
  -1436608.61706  23440359.20606  -1102253.95246  23440358.99546
   -162874.33607  20576966.63607   -128105.98048  20576964.58948
 04  2 13  2 53 29.9990000  0  7  2  3  8 11 27 28 31
    144761.01206  23404556.47906    105859.88446  23404559.09746
    135518.11706  23394531.08906     98573.78846  23394531.47646
   -794597.72307  21144705.12807   -608440.86148  21144704.24148
   -959320.77307  20067748.44807   -736462.88548  20067745.72248
   -196865.34805  21004527.60405   -153861.14847  21004526.76147
  -1516580.34006  23425140.69006  -1164569.53946  23425140.48346
   -171327.46507  20575358.19007   -134692.84448  20575355.97648
 04  2 13  2 53 44.9990000  0  7  2  3  8 11 27 28 31
    153045.73406  23406132.94806    112315.41646  23406134.98746
    142790.11706  23395915.36206    104240.24546  23395915.47646
   -834700.23807  21137073.97207   -639689.54448  21137073.25348
  -1008397.27307  20058409.26107   -774704.29348  20058406.22648
   -205889.04306  21002810.10406   -160892.61147  21002809.41347
  -1596535.43406  23409926.15106  -1226872.18746  23409925.31246
   -179719.35907  20573761.30807   -141231.98648  20573759.49948
 04  2 13  2 53 59.9990000  0  7  2  3  8 11 27 28 31
    161397.22306  23407722.13606    118822.94946  23407724.26546
    150077.24206  23397301.68306    109918.49347  23397302.41747
   -874636.02707  21129474.56507   -670808.37648  21129473.55448
  -1057338.87107  20049095.98707   -812840.60248  20049093.12448
   -214781.75806  21001118.29206   -167822.01947  21001117.32347
  -1676474.52006  23394714.15906  -1289162.35246  23394713.62446
   -188050.79307  20572175.51107   -147724.01248  20572174.26548
 04  2 13  2 54 14.9990000  0  7  2  3  8 11 27 28 31
    169815.18806  23409324.48706    125382.27446  23409326.03046
    157379.25005  23398691.41705    115608.31546  23398691.98746
   -914405.42607  21121906.72207   -701797.52048  21121905.80848
  -1106145.84807  20039808.87807   -850872.00148  20039805.66348
   -223544.07806  20999450.92506   -174649.83847  20999450.35147
  -1756397.70706  23379505.18306  -1351440.13546  23379504.54646
   -196322.27007  20570601.91707   -154169.32748  20570600.59348
 04  2 13  2 54 29.9990000  0  7  2  3  8 11 27 28 31
    178298.64806  23410938.33906    131992.67646  23410940.44046
    164695.37106  23400084.29206    121309.15746  23400084.52246
   -954008.94507  21114370.67507   -732657.40148  21114369.69848
  -1154818.78507  20030546.29207   -888798.94248  20030543.75348
   -232177.04706  20997807.95606   -181376.82147  20997807.61647
  -1836305.41806  23364299.56506  -1413705.84046  23364299.10446
   -204534.52307  20569039.35407   -160568.49548  20569037.84748
 04  2 13  2 54 44.9990000  0  7  2  3  8 11 27 28 31
    186846.49206  23412565.31506    138653.22546  23412566.38246
    172024.44905  23401478.46405    127020.06346  23401479.34346
   -993447.73007  21106866.17507   -763388.93048  21106865.05448
  -1203358.79707  20021309.29207   -926622.32448  20021306.66348
   -240681.89506  20996189.44806   -188003.99147  20996189.11647
  -1916198.56306  23349095.79206  -1475960.20547  23349095.64447
   -212688.73007  20567487.63607   -166922.42948  20567486.53848
 04  2 13  2 54 59.9990000  0  7  2  3  8 11 27 28 31
    195456.71906  23414204.65106    145362.39446  23414205.14046
    179364.59406  23402875.05806    132739.62346  23402876.96446
  -1032723.62907  21099391.69807   -793993.53048  21099390.96448
  -1251767.64107  20012097.37007   -964343.47948  20012094.99948
   -249060.68406  20994595.22206   -194532.94147  20994594.75347
  -1996078.74606  23333895.60406  -1538204.49246  23333894.70646
   -220786.91407  20565946.57307   -173232.71148  20565945.58948
 04  2 13  2 55 14.9990000  0  7  2  3  8 11 27 28 31
    204130.36306  23415855.03406    152120.99146  23415855.65146
    186716.78505  23404274.62005    138468.52746  23404275.89446
  -1071835.40207  21091949.31507   -824470.22948  21091947.71048
  -1300044.26207  20002910.77607  -1001961.61048  20002908.48348
   -257312.70706  20993024.51906   -200963.10147  20993024.51947
  -2075944.61706  23318697.88606  -1600437.62447  23318696.90947
   -228828.02007  20564416.17507   -179498.52448  20564415.53848
 04  2 13  2 55 29.9990000  0  7  2  3  8 11 27 28 31
    212867.23006  23417517.80006    158928.79246  23417518.71046
    194080.89105  23405675.60405    144206.76446  23405677.78046
  -1110783.02007  21084537.80807   -854819.01948  21084536.49148
  -1348188.61707  19993749.00307  -1039476.67748  19993746.88248
   -265438.16806  20991478.19006   -207294.64347  20991478.24147
  -2155796.16406  23303502.48706  -1662659.55647  23303501.80447
   -236812.28907  20562897.11207   -185720.03948  20562896.04248
 04  2 13  2 55 44.9990000  0  7  2  3  8 11 27 28 31
    221666.26206  23419191.44006    165785.03546  23419193.02246
    201456.06605  23407079.18305    149953.61646  23407081.80446
  -1149567.44507  21077157.23707   -885040.62848  21077156.31248
  -1396201.57407  19984612.32307  -1076889.35048  19984610.43748
   -273438.33606  20989955.83106   -213528.53847  20989956.00347
  -2235634.05506  23288310.09706  -1724870.86947  23288309.18347
   -244740.72307  20561388.69007   -191898.03748  20561387.27248
 04  2 13  2 55 59.9990000  0  7  2  3  8 11 27 28 31
    230526.75406  23420877.81506    172689.20846  23420879.46446
    208841.62505  23408484.89405    155708.54246  23408487.81546
  -1188189.20306  21069807.19806   -915135.50248  21069806.57348
  -1444083.65607  19975500.87807  -1114200.03948  19975498.62848
   -281313.91006  20988458.14406   -219665.37847  20988457.81547
  -2315458.52006  23273119.72906  -1787071.71947  23273118.44847
   -252613.96507  20559889.87007   -198033.02548  20559888.47248
 04  2 13  2 56 14.9990000  0  7  2  3  8 11 27 28 31
    239448.40606  23422575.62006    179641.00646  23422577.40146
    216237.41405  23409892.36205    161471.46746  23409894.31946
  -1226648.40606  21062488.42506   -945103.70148  21062488.24148
  -1491835.05907  19966413.96407  -1151408.91749  19966411.69849
   -289065.32806  20986982.72206   -225705.46947  20986982.94847
  -2395269.66406  23257932.12806  -1849262.19847  23257930.74947
   -260432.36307  20558402.30807   -204125.30048  20558400.80448
 04  2 13  2 56 29.9990000  0  7  2  3  8 11 27 28 31
    248430.27706  23424285.19006    186639.75946  23424286.56546
    223642.58204  23411301.18304    167241.68646  23411303.61646
  -1264945.75406  21055200.55006   -974945.80648  21055200.37048
  -1539456.59407  19957352.27607  -1188516.59948  19957349.46048
   -296693.73006  20985531.08906   -231649.69747  20985530.69047
  -2475068.08606  23242747.19006  -1911442.75147  23242746.07747
   -268196.77707  20556924.51107   -210175.48348  20556923.10848
 04  2 13  2 56 44.9990000  0  7  2  3  8 11 27 28 31
    257472.18006  23426006.11206    193685.30846  23426007.84746
    231056.96905  23412712.33105    173019.08846  23412714.08546
  -1303081.40606  21047943.92506  -1004661.92148  21047943.46848
  -1586948.05907  19948314.70607  -1225522.91848  19948312.05048
   -304199.53106  20984102.91706   -237498.38547  20984102.01547
  -2554853.50006  23227564.35406  -1973613.17547  23227563.33147
   -275907.43407  20555457.29207   -216183.80048  20555455.55448
 04  2 13  2 56 59.9990000  0  7  2  3  8 11 27 28 31
    266573.84406  23427737.76906    200777.39946  23427740.39046
    238480.37105  23414124.95605    178803.53646  23414126.23746
  -1341055.49606  21040717.89406  -1034252.12148  21040716.94448
  -1634309.76207  19939302.15907  -1262428.12948  19939299.24148
   -311582.98806  20982697.92506   -243251.76247  20982697.19047
  -2634625.90206  23212384.16706  -2035773.47347  23212383.08547
   -283564.60507  20553999.99507   -222150.42148  20553998.68348
 04  2 13  2 57 14.9990000  0  7  2  3  8 11 27 28 31
    275735.38306  23429481.05006    207916.12046  23429483.55046
    245912.95705  23415539.90105    184595.10446  23415539.78046
  -1378867.64506  21033522.64406  -1063716.14748  21033521.59748
  -1681541.48007  19930314.44807  -1299232.05048  19930311.26148
   -318844.31606  20981315.84706   -248909.96147  20981315.37447
  -2714384.85906  23197206.16706  -2097923.27547  23197205.13647
   -291168.15207  20552553.10407   -228075.26848  20552551.69048
 04  2 13  2 57 29.9990000  0  7  2  3  8 11 27 28 31
    284957.02006  23431236.51106    215101.66746  23431238.14746
    253354.96506  23416955.80806    190394.01446  23416955.73346
  -1416517.69107  21026357.76907  -1093053.83448  21026357.06248
  -1728642.84007  19921350.96407  -1335934.39648  19921348.46448
   -325983.33206  20979957.57306   -254472.84947  20979956.90147
  -2794129.89806  23182030.76106  -2160062.26847  23182029.88647
   -298717.88307  20551116.44007   -233958.18648  20551115.01548
 04  2 13  2 57 44.9990000  0  7  2  3  8 11 27 28 31
    294236.67206  23433002.23706    222332.47346  23433004.32346
    260804.41805  23418373.08105    196198.71846  23418374.14046
  -1454007.26607  21019224.23707  -1122266.50248  21019222.81948
  -1775615.63707  19912412.12007  -1372536.55748  19912409.87848
   -333002.21106  20978621.58906   -259942.11447  20978621.62847
  -2873862.60906  23166858.15106  -2222191.58546  23166857.13246
   -306215.72307  20549689.93307   -239800.67648  20549688.37448
 04  2 13  2 57 59.9990000  0  7  2  3  8 11 27 28 31
    303575.29306  23434779.40906    229609.18646  23434781.16346
    268262.38305  23419791.87805    202010.10146  23419794.18746
  -1491335.50807  21012121.08907  -1151353.42948  21012119.40548
  -1822458.78907  19903498.34707  -1409037.69548  19903495.71848
   -339900.21906  20977309.19006   -265317.20447  20977308.67147
  -2953581.78506  23151687.82306  -2284310.39946  23151687.51946
   -313660.88707  20548273.08907   -245602.11148  20548271.33548
 04  2 13  2 58 14.9990000  0  7  2  3  8 11 27 28 31
    312971.64506  23436567.29206    236930.91546  23436569.05046
    275727.71905  23421213.35405    207827.14746  23421213.90146
  -1528503.48407  21005048.01107  -1180315.48348  21005046.83548
  -1869173.34807  19894609.08107  -1445438.64348  19894606.28848
   -346678.71106  20976019.57306   -270599.17547  20976019.31247
  -3033288.33606  23136520.29206  -2346419.37546  23136519.28446
   -321054.49607  20546865.86207   -251363.39548  20546864.55448
 04  2 13  2 58 29.9990000  0  7  2  3  8 11 27 28 31
    322426.37506  23438366.51906    244298.05746  23438368.67946
    283201.24605  23422635.83905    213650.62646  23422636.26546
  -1565510.38307  20998005.85407  -1209152.00148  20998004.40948
  -1915758.49607  19885744.12807  -1481738.74448  19885741.79648
   -353337.18805  20974752.52605   -275787.58047  20974752.21047
  -3112981.18406  23121355.43306  -2408517.67047  23121354.55447
   -328395.85207  20545469.33907   -257083.94248  20545467.06248
 04  2 13  2 58 44.9990000  0  7  2  3  8 11 27 28 31
    331938.87506  23440177.21406    251710.28146  23440178.95246
    290682.49205  23424058.75305    219480.13346  23424058.92946
  -1602356.43407  20990994.62807  -1237863.21748  20990992.96848
  -1962214.81607  19876903.79207  -1517938.45748  19876901.62448
   -359876.27305  20973507.95605   -280883.02647  20973507.78447
  -3192660.51206  23106192.97906  -2470605.43546  23106192.98746
   -335685.41807  20544081.78407   -262764.13748  20544080.14448
 04  2 13  2 58 59.9990000  0  7  2  3  8 11 27 28 31
    341509.48805  23441998.78405    259167.77746  23442000.14046
    298171.64505  23425483.92505    225315.79946  23425483.97946
  -1639041.42207  20984013.07307  -1266448.92248  20984012.16748
  -2008541.77707  19868087.87007  -1554037.36549  19868085.63649
   -366296.06606  20972285.67506   -285885.45747  20972286.37047
  -3272325.71106  23091033.05806  -2532682.16546  23091032.80446
   -342923.08207  20542704.59707   -268403.88448  20542702.74548
 04  2 13  2 59 14.9990000  0  7  2  3  8 11 27 28 31
    351136.55105  23443830.46405    266669.23446  23443831.20246
    305667.24605  23426910.94805    231156.45146  23426910.49146
  -1675566.77007  20977062.59707  -1294910.23948  20977061.32348
  -2054740.93407  19859296.57307  -1590036.69749  19859294.30449
   -372598.05506  20971087.00306   -290796.12947  20971087.61247
  -3351978.13706  23075875.95606  -2594748.96547  23075875.54247
   -350110.38707  20541337.00307   -274004.39048  20541335.67548
 04  2 13  2 59 29.9990000  0  7  2  3  8 11 27 28 31
    360819.95305  23445673.47205    274214.61746  23445674.12846
    313169.27304  23428338.03404    237002.13946  23428338.37046
  -1711932.43406  20970142.55806  -1323247.11948  20970141.31548
  -2100812.19507  19850529.36207  -1625936.35448  19850527.12048
   -378782.67606  20969910.05006   -295615.31447  20969910.56247
  -3431617.40606  23060721.27606  -2656805.49947  23060720.34747
   -357247.41407  20539978.77607   -279565.72348  20539977.69448
 04  2 13  2 59 44.9990000  0  7  2  3  8 11 27 28 31
    370560.24205  23447527.04205    281804.34946  23447528.47946
    320678.38304  23429767.50304    242853.38046  23429766.69046
  -1748137.75007  20963252.75307  -1351459.06748  20963252.01948
  -2146754.78507  19841786.84707  -1661735.76548  19841784.23748
   -384849.40206  20968755.23706   -300342.66547  20968755.89047
  -3511242.77706  23045569.44806  -2718851.24947  23045568.29247
   -364333.57807  20538630.26107   -285087.42148  20538629.77248
 04  2 13  2 59 59.9990000  0  7  2  3  8 11 27 28 31
    380357.25805  23449390.99505    289438.26946  23449392.55846
    328194.53104  23431197.92504    248710.01246  23431197.93346
  -1784182.69107  20956393.87807  -1379546.05048  20956392.81248
  -2192568.68407  19833068.98707  -1697434.89148  19833066.59348
   -390798.68406  20967623.77606   -304978.50247  20967623.99947
  -3590854.00006  23030419.03406  -2780885.89647  23030418.17947
   -371369.01207  20537291.65107   -290569.58148  20537290.51948
 04  2 13  3  0 14.9990000  0  7  2  3  8 11 27 28 31
    390209.71505  23451265.76905    297115.36546  23451267.49146
    335716.44103  23432629.45603    254571.24946  23432628.80846
  -1820068.37107  20949564.83907  -1407508.92748  20949563.93748
  -2238255.04307  19824375.44807  -1733034.62848  19824372.71048
   -396631.78506  20966513.96406   -309523.80847  20966513.20247
  -3670452.07806  23015272.21406  -2842910.38947  23015271.48347
   -378354.97307  20535962.14407   -296013.20548  20535960.92948
 04  2 13  3  0 29.9990000  0  7  2  3  8 11 27 28 31
    400118.54305  23453151.71405    304836.35346  23453154.53046
    343245.14504  23434061.66704    260437.69446  23434061.74946
  -1855793.99607  20942766.81507  -1435347.07648  20942765.33548
  -2283812.94907  19815705.80807  -1768534.28248  19815703.49948
   -402348.21906  20965425.82306   -313978.19347  20965425.39047
  -3750035.80506  23000128.67506  -2904923.64247  23000127.67147
   -385290.59807  20534642.15907   -301417.61248  20534640.65148
 04  2 13  3  0 44.9990000  0  7  2  3  8 11 27 28 31
    410083.96505  23455048.79205    312601.44146  23455050.72246
    350780.98805  23435496.01105    266309.74146  23435496.31546
  -1891359.06607  20935998.93307  -1463060.13148  20935997.62448
  -2329241.92607  19807060.62007  -1803933.48449  19807058.73749
   -407947.63706  20964360.55806   -318341.42847  20964359.51947
  -3829604.39806  22984986.59706  -2966925.12147  22984985.56547
   -392175.55907  20533332.44807   -306782.54148  20533330.60448
 04  2 13  3  0 59.9990000  0  7  2  3  8 11 27 28 31
    420104.44905  23456955.12005    320409.46746  23456957.35846
    358322.56605  23436930.04205    272186.22146  23436931.74146
  -1926764.75807  20929261.47907  -1490648.97848  20929259.85448
  -2374543.35907  19798440.29207  -1839233.29248  19798437.69848
   -413431.76206  20963317.07306   -322614.77047  20963316.18347
  -3909158.98806  22969847.40106  -3028915.70247  22969847.40547
   -399011.30907  20532031.71407   -312109.11848  20532029.85848
 04  2 13  3  1 14.9990000  0  7  2  3  8 11 27 28 31
    430179.91405  23458872.75305    328260.35946  23458874.50746
    365869.73405  23438367.09705    278067.06546  23438368.37846
  -1962011.15207  20922554.20607  -1518113.68848  20922553.07748
  -2419717.14807  19789844.23707  -1874433.61848  19789841.82348
   -418800.90605  20962294.97205   -326798.53747  20962294.38247
  -3988699.41406  22954711.76106  -3090895.18947  22954711.26547
   -405797.98007  20530740.29207   -317397.44048  20530738.74948
 04  2 13  3  1 29.9990000  0  7  2  3  8 11 27 28 31
    440310.67205  23460800.35405    336154.32946  23460803.05046
    373423.00006  23439804.37006    283952.67046  23439806.14446
  -1997097.92207  20915877.56507  -1545454.03548  20915876.60448
  -2464762.98807  19781271.91707  -1909534.27548  19781269.72648
   -424054.84005  20961294.80005   -330892.56846  20961295.49946
  -4068225.09406  22939578.92506  -3152863.24947  22939577.51147
   -412535.21107  20529457.83907   -322647.26048  20529456.76548
 04  2 13  3  1 44.9980000  0  7  2  3  8 11 27 28 31
    450495.98804  23462738.42004    344090.78646  23462741.45546
    380981.90206  23441242.88106    289842.67246  23441244.95946
  -2032022.56307  20909231.36507  -1572668.04248  20909230.29948
  -2509677.70307  19772724.83407  -1944532.73548  19772722.29148
   -429193.50405  20960317.52105   -334896.74047  20960316.97147
  -4147730.30506  22924449.41206  -3214815.33847  22924448.60047
   -419222.59407  20528185.06807   -327858.22248  20528184.33848
 04  2 13  3  1 59.9980000  0  7  2  3  8 11 27 28 31
    460735.83605  23464687.70105    352069.68646  23464690.62346
    388546.13706  23442682.95106    295736.83146  23442684.80746
  -2066791.09007  20902615.16207  -1599760.39848  20902613.90048
  -2554468.53907  19764201.21707  -1979434.67048  19764198.61948
   -434219.07805  20959361.56805   -338812.80146  20959360.68246
  -4227226.71906  22909321.47506  -3276760.57247  22909320.41647
   -425862.39107  20526921.78707   -333032.10148  20526920.80748
 04  2 13  3  2 14.9980000  0  7  2  3  8 11 27 28 31
    471029.56304  23466646.53704    360090.61746  23466649.67046
    396115.34806  23444122.99006    301634.85546  23444125.22546
  -2101400.92607  20896029.42007  -1626729.11448  20896028.18948
  -2599132.20307  19755702.28707  -2014237.51448  19755699.58048
   -439131.36305  20958426.23205   -342640.62846  20958425.90446
  -4306708.54706  22894196.63106  -3338694.46847  22894195.62347
   -432454.01607  20525667.33407   -338168.45148  20525666.43648
 04  2 13  3  2 29.9980000  0  7  2  3  8 11 27 28 31
    481378.12905  23468616.43605    368154.24346  23468619.37746
    403690.60506  23445564.24806    307537.57246  23445567.04946
  -2135850.95307  20889473.57607  -1653573.31048  20889473.05348
  -2643667.73007  19747227.33407  -2048940.51348  19747224.93248
   -443929.51205  20957513.19305   -346379.45546  20957512.82246
  -4386174.50006  22879075.38106  -3400615.94047  22879074.10447
   -438996.52307  20524422.11507   -343266.51248  20524421.61948
 04  2 13  3  2 44.9980000  0  7  2  3  8 11 27 28 31
    491780.34404  23470595.31804    376259.78746  23470598.50646
    411270.77306  23447007.13906    313444.10946  23447009.32246
  -2170142.23807  20882947.68607  -1680293.79748  20882946.98648
  -2688076.05507  19738776.63907  -2083544.39448  19738774.21348
   -448614.83603  20956621.66203   -350030.40346  20956621.77946
  -4465625.39106  22863955.89606  -3462525.70247  22863955.16247
   -445491.03907  20523186.08407   -348327.17748  20523185.09248
 04  2 13  3  2 59.9980000  0  7  2  3  8 11 27 28 31
    502236.19905  23472585.35705    384407.01646  23472588.09246
    418856.04306  23448450.57606    319354.62846  23448453.09246
  -2204274.64807  20876452.88907  -1706890.48548  20876451.88548
  -2732357.11307  19730350.20907  -2118049.11948  19730347.59248
   -453187.50404  20955751.67004   -353593.50246  20955751.74046
  -4545060.83206  22848839.46706  -3524423.42047  22848839.62347
   -451937.50807  20521959.80307   -353350.41948  20521957.99048
 04  2 13  3  3 14.9980000  0  7  2  3  8 11 27 28 31
    512746.20704  23474585.36504    392596.52846  23474588.59246
    426446.81305  23449895.27105    325269.41546  23449897.83446
  -2238247.67207  20869988.24007  -1733362.97348  20869987.25648
  -2776510.24207  19721948.23207  -2152454.14448  19721945.55348
   -457647.24203  20954902.85703   -357068.66846  20954902.51446
  -4624480.07406  22833726.85006  -3586308.48847  22833725.86147
   -458335.46507  20520742.20107   -358335.84148  20520740.91648
 04  2 13  3  3 29.9980000  0  7  2  3  8 11 27 28 31
    523310.04705  23476595.50605    400827.90046  23476598.67446
    434043.02305  23451340.66205    331188.48246  23451344.09246
  -2272061.45707  20863553.60707  -1759711.37148  20863552.62748
  -2820535.57407  19713570.35707  -2186759.60748  19713567.78748
   -461994.41803  20954075.45903   -360456.12445  20954075.10445
  -4703882.91806  22818617.11506  -3648180.83847  22818615.95547
   -464685.14807  20519533.99807   -363283.68048  20519532.56448
 04  2 13  3  3 44.9980000  0  7  2  3  8 11 27 28 31
    533927.41005  23478615.83405    409100.92846  23478619.38546
    441644.46505  23452787.13105    337111.67946  23452789.92046
  -2305716.22307  20857149.25607  -1785935.87148  20857148.06148
  -2864433.32407  19705217.31107  -2220965.64148  19705214.63148
   -466229.69502  20953268.58402   -363756.34045  20953269.43245
  -4783269.43006  22803509.81106  -3710040.43747  22803509.91647
   -470986.91807  20518335.07607   -368194.16148  20518333.26048
 04  2 13  3  3 59.9980000  0  7  2  3  8 11 27 28 31
    544598.09405  23480647.13905    417415.59146  23480650.32246
    449250.92605  23454235.11505    343038.71446  23454237.50246
  -2339212.02307  20850775.38107  -1812036.49548  20850774.41248
  -2908203.54707  19696887.99007  -2255072.30349  19696885.10449
   -470353.15604  20952484.97504   -366969.48845  20952484.93945
  -4862639.45306  22788405.90406  -3771887.20047  22788405.65847
   -477240.84007  20517145.11507   -373067.35948  20517143.10748
 04  2 13  3  4 14.9980000  0  7  2  3  8 11 27 28 31
    555322.07005  23482687.62305    425771.78446  23482691.02146
    456862.60506  23455683.26406    348969.81646  23455686.16646
  -2372548.75407  20844431.50607  -1838013.18048  20844430.90048
  -2951846.18007  19688583.13907  -2289079.54249  19688580.83849
   -474365.18003  20951721.98203   -370095.81645  20951720.95945
  -4941992.52706  22773306.34206  -3833720.71247  22773305.96747
   -483446.93007  20515963.97507   -377903.29248  20515961.77548
 04  2 13  3  4 29.9980000  0  7  2  3  8 11 27 28 31
    566098.33205  23484738.03705    434168.68446  23484741.97546
    464478.67605  23457132.62305    354904.40446  23457135.34646
  -2405727.19507  20838117.66207  -1863866.51348  20838117.11548
  -2995361.93807  19680301.96707  -2322987.90449  19680300.19749
   -478266.76201  20950979.79501   -373135.96545  20950978.70145
  -5021329.19506  22758209.19306  -3895541.46747  22758208.17847
   -489606.04307  20514792.00607   -382702.60648  20514790.19348
 04  2 13  3  4 44.9980000  0  7  2  3  8 11 27 28 31
    576928.55905  23486799.67805    442607.64946  23486803.08446
    472100.84406  23458583.24006    360843.67546  23458586.12746
  -2438745.66807  20831834.27907  -1889595.21448  20831833.81148
  -3038749.02307  19672045.89607  -2356796.02149  19672043.72549
   -482056.55504  20950258.59204   -376089.12545  20950257.35745
  -5100647.65206  22743115.13906  -3957348.04247  22743113.92047
   -495716.57807  20513629.26407   -387464.06448  20513627.41248
 04  2 13  3  4 59.9980000  0  7  2  3  8 11 27 28 31
    587810.52305  23488869.98205    451086.95846  23488873.81446
    479727.03906  23460034.85006    366786.06246  23460037.40046
  -2471606.15607  20825581.11507  -1915200.80448  20825581.06848
  -3082009.50007  19663813.42807  -2390505.47649  19663811.53349
   -485736.68404  20949559.11504   -378956.70745  20949557.60445
  -5179949.43406  22728024.49006  -4019141.62247  22728023.33047
   -501780.60507  20512475.52107   -392189.28048  20512474.24448
 04  2 13  3  5 14.9980000  0  7  2  3  8 11 27 28 31
    598745.40204  23490951.34204    459607.44046  23490954.96746
    487358.34806  23461486.26406    372732.49346  23461489.45946
  -2504307.55107  20819357.89607  -1940682.42348  20819358.31148
  -3125142.13307  19655605.95107  -2424115.31049  19655603.36149
   -489306.33204  20948879.37304   -381738.26245  20948878.36545
  -5259233.23006  22712937.11506  -4080921.17147  22712935.78747
   -507797.05107  20511330.37307   -396877.42648  20511329.32648
 04  2 13  3  5 29.9980000  0  7  2  3  8 11 27 28 31
    609732.15605  23493042.53705    468168.40046  23493045.54146
    494993.94906  23462939.54506    378682.29346  23462942.27146
  -2536850.65207  20813165.37307  -1966040.70648  20813164.95548
  -3168147.81607  19647422.06807  -2457626.22148  19647420.03748
   -492766.73804  20948220.60704   -384434.63345  20948219.93945
  -5338499.65206  22697853.10706  -4142687.17547  22697852.45547
   -513766.87507  20510194.39607   -401529.24648  20510193.40848
 04  2 13  3  5 44.9980000  0  7  2  3  8 11 27 28 31
    620770.69905  23495142.70905    476769.61746  23495146.35746
    502633.84406  23464393.19306    384635.39246  23464396.06846
  -2569235.66007  20807003.13107  -1991275.78248  20807002.28348
  -3211026.62907  19639262.36507  -2491038.28148  19639260.06448
   -496118.03505  20947582.72505   -387046.10245  20947581.93945
  -5417748.44906  22682772.71706  -4204439.48647  22682771.28747
   -519690.11707  20509067.60007   -406144.77448  20509066.49048
 04  2 13  3  5 59.9980000  0  7  2  3  8 11 27 28 31
    631861.42205  23497253.30305    485411.52446  23497257.00246
    510278.53506  23465847.58406    390592.24046  23465850.15446
  -2601461.89507  20800870.38907  -2016387.15548  20800869.54148
  -3253778.11307  19631127.30307  -2524351.12048  19631124.92848
   -499360.17604  20946965.93604   -389572.47745  20946965.30345
  -5496978.87906  22667695.11506  -4266177.46946  22667693.59246
   -525566.38307  20507949.24007   -410723.68748  20507948.39648
 04  2 13  3  6 14.9980000  0  7  2  3  8 11 27 28 31
    643003.84005  23499374.09205    494093.82246  23499377.44746
    517927.95706  23467303.67806    396552.74246  23467305.54146
  -2633529.69907  20794768.70907  -2041375.07148  20794766.95948
  -3296402.39807  19623016.19307  -2557564.84948  19623012.97148
   -502493.58205  20946369.16205   -392014.13745  20946368.68245
  -5576190.87506  22652621.52106  -4327901.08147  22652620.26847
   -531395.91407  20506839.85007   -415266.17748  20506838.88148
 04  2 13  3  6 29.9980000  0  7  2  3  8 11 27 28 31
    654197.95705  23501504.92805    502816.28246  23501508.20946
    525581.90206  23468760.34206    402516.86646  23468761.82646
  -2665439.01607  20788696.51407  -2066239.49148  20788695.29548
  -3338899.34807  19614929.04507  -2590679.35149  19614926.63949
   -505518.50405  20945794.16205   -394371.27045  20945792.30745
  -5655384.15206  22637551.46706  -4389610.08747  22637550.24047
   -537178.85207  20505739.45107   -419772.36048  20505738.49848
 04  2 13  3  6 44.9980000  0  7  2  3  8 11 27 28 31
    665443.55905  23503644.28705    511578.90846  23503648.38546
    533240.17205  23470217.27905    408484.29646  23470218.56846
  -2697190.16407  20782654.55307  -2090980.64648  20782653.25248
  -3381269.18007  19606866.11507  -2623694.79849  19606864.04549
   -508435.43806  20945238.30306   -396644.18145  20945237.47945
  -5734558.68006  22622485.05306  -4451304.51147  22622484.13547
   -542915.44507  20504647.71707   -424242.44148  20504646.49848
 04  2 13  3  6 59.9980000  0  7  2  3  8 11 27 28 31
    676741.50005  23505794.28705    520382.32946  23505799.05746
    540903.76205  23471675.87305    414455.88746  23471676.63946
  -2728781.82407  20776642.77107  -2115597.53348  20776641.73248
  -3423510.80507  19598827.90407  -2656610.34248  19598825.69348
   -511243.42205  20944703.92005   -398832.26045  20944701.90845
  -5813713.03906  22607422.81806  -4512983.21447  22607422.04547
   -548604.61307  20503564.63907   -428675.54648  20503563.84648
 04  2 13  3  7 14.9980000  0  7  2  3  8 11 27 28 31
    688090.08605  23507954.35705    529225.18746  23507958.22946
    548571.13306  23473134.76406    420430.36546  23473135.75246
  -2760215.89807  20770661.35007  -2140091.61948  20770660.14348
  -3465625.89507  19590813.72507  -2689427.28649  19590811.24049
   -513944.55905  20944189.41205   -400937.08446  20944187.96746
  -5892848.45306  22592363.96706  -4574647.14347  22592363.31847
   -554248.06307  20502490.89607   -433073.02548  20502489.51848
 04  2 13  3  7 29.9980000  0  7  2  3  8 11 27 28 31
    699490.49605  23510124.28705    538108.41146  23510128.57646
    556243.66406  23474595.76406    426408.90546  23474595.69746
  -2791490.88707  20764709.79507  -2164461.74748  20764708.52548
  -3507613.06607  19582823.77107  -2722144.54949  19582821.50649
   -516537.67605  20943697.14605   -402957.73846  20943695.92446
  -5971963.52006  22577309.35706  -4636295.22647  22577308.00247
   -559844.54707  20501425.97507   -437433.92148  20501424.53748
 04  2 13  3  7 44.9980000  0  7  2  3  8 11 27 28 31
    710941.37505  23512303.56105    547030.95446  23512307.45146
    563920.05106  23476056.73206    432390.47246  23476055.89646
  -2822608.16807  20758788.47507  -2188708.99148  20758787.13148
  -3549473.39807  19574858.23207  -2754762.98848  19574856.22548
   -519024.31605  20943223.72505   -404895.38646  20943222.97546
  -6051059.21506  22562257.56806  -4697928.19647  22562256.76047
   -565395.33207  20500369.81107   -441759.21848  20500368.02148
 04  2 13  3  7 59.9980000  0  7  2  3  8 11 27 28 31
    722443.59005  23514492.88105    555993.59046  23514496.66246
    571601.38706  23477517.88906    438375.82346  23477518.04146
  -2853566.72707  20752897.17007  -2212832.53648  20752896.02548
  -3591205.96107  19566916.93607  -2787281.85449  19566914.70149
   -521403.77005  20942770.09205   -406749.54146  20942770.31446
  -6130134.14806  22547210.44306  -4759545.01647  22547209.25647
   -570899.50407  20499322.41207   -446048.17948  20499320.40848
 04  2 13  3  8 14.9980000  0  7  2  3  8 11 27 28 31
    733996.28505  23516691.25605    564995.43546  23516695.38946
    579286.95306  23478980.54506    444364.53746  23478980.85046
  -2884367.25407  20747035.82607  -2236832.96348  20747034.53748
  -3632811.52707  19558999.42007  -2819701.77049  19558997.08449
   -523677.07005  20942337.59205   -408520.95746  20942337.76446
  -6209188.86306  22532166.37306  -4821146.07247  22532165.68947
   -576357.86707  20498283.98207   -450301.45348  20498281.40848
 04  2 13  3  8 29.9980000  0  7  2  3  8 11 27 28 31
    745599.56605  23518898.63105    574036.78546  23518904.03346
    586976.84406  23480443.76406    450356.64046  23480444.62746
  -2915009.53907  20741204.95107  -2260710.07848  20741203.29148
  -3674289.89507  19551106.59207  -2852022.56248  19551104.03348
   -525844.13304  20941925.65404   -410209.67046  20941925.24846
  -6288222.83206  22517126.95906  -4882730.95647  22517126.11147
   -581770.23807  20497254.17807   -454518.88548  20497251.68648
 04  2 13  3  8 44.9980000  0  7  2  3  8 11 27 28 31
    757253.04705  23521116.52105    583117.19946  23521121.70946
    594670.89506  23481907.78706    456351.94246  23481908.84246
  -2945493.95307  20735403.45107  -2284464.18948  20735402.43648
  -3715641.30907  19543237.56807  -2884244.44048  19543235.10048
   -527905.65604  20941533.45104   -411816.10546  20941533.05746
  -6367235.93006  22502091.13106  -4944299.59447  22502089.63547
   -587136.97307  20496232.67807   -458700.76448  20496230.81148
 04  2 13  3  8 59.9980000  0  7  2  3  8 11 27 28 31
    768957.00805  23523343.99005    592236.97846  23523349.04146
    602369.36305  23483372.87305    462350.74546  23483374.14646
  -2975820.20307  20729632.46707  -2308095.05148  20729631.97948
  -3756865.30907  19535392.98207  -2916367.02648  19535390.47148
   -529861.60204  20941161.40404   -413340.30246  20941161.29946
  -6446227.66006  22487060.07606  -5005851.57647  22487058.07647
   -592457.83207  20495220.06107   -462846.89348  20495218.12748
 04  2 13  3  9 14.9980000  0  7  2  3  8 11 27 28 31
    780711.16005  23525580.92805    601395.84246  23525585.88946
    610072.12506  23484839.08406    468352.80746  23484839.94346
  -3005988.23407  20723891.98207  -2331602.62048  20723891.42448
  -3797961.94507  19527572.45907  -2948390.38249  19527569.61149
   -531712.23404  20940809.80304   -414782.29346  20940809.19346
  -6525197.78506  22472031.93606  -5067386.71847  22472030.99047
   -597732.90207  20494216.06107   -466957.34148  20494214.23648
 04  2 13  3  9 29.9980000  0  7  2  3  8 11 27 28 31
    792514.80605  23527827.59205    610593.18246  23527832.17846
    617778.59805  23486305.89605    474357.78146  23486307.01446
  -3035998.91807  20718180.85007  -2354987.58948  20718180.17848
  -3838932.03507  19519776.24007  -2980315.11848  19519772.93648
   -533458.57004  20940477.35704   -416143.20946  20940477.29146
  -6604146.80106  22457008.35006  -5128905.40647  22457007.47147
   -602962.96507  20493220.78707   -471032.71248  20493219.04548
 04  2 13  3  9 44.9980000  0  7  2  3  8 11 27 28 31
    804368.51605  23530083.43605    619829.67246  23530088.30746
    625489.59005  23487773.02905    480366.32446  23487774.22946
  -3065851.48407  20712500.90407  -2378249.34048  20712499.48248
  -3879774.82807  19512003.83407  -3012140.66548  19512000.83048
   -535100.17603  20940164.79503   -417422.39846  20940165.55746
  -6683073.56306  22441989.35006  -5190406.74247  22441988.13147
   -608147.28907  20492234.23207   -475072.43748  20492232.68648
 04  2 13  3  9 59.9980000  0  7  2  3  8 11 27 28 31
    816271.70305  23532348.60705    629104.68646  23532353.14646
    633204.50505  23489240.55305    486377.93746  23489242.97946
  -3095546.44507  20706849.84207  -2401388.28848  20706849.11148
  -3920490.86707  19504255.79507  -3043867.44848  19504252.81148
   -536637.71903  20939871.99003   -418620.54246  20939872.94746
  -6761978.31306  22426974.20906  -5251890.93447  22426973.05747
   -613286.42607  20491256.62307   -479076.96248  20491255.29548
 04  2 13  3 10 14.9980000  0  7  2  3  8 11 27 28 31
    828224.21905  23534622.85705    638418.16946  23534628.16246
    640923.41405  23490710.24005    492392.56946  23490711.65446
  -3125083.93407  20701229.06107  -2424404.53848  20701228.28348
  -3961079.98407  19496531.99007  -3075495.33048  19496528.99848
   -538071.59004  20939599.41204   -419737.86746  20939599.86946
  -6840860.80107  22411963.60007  -5313357.80847  22411961.95547
   -618380.46107  20490287.28707   -483046.35448  20490285.90448
 04  2 13  3 10 29.9980000  0  7  2  3  8 11 27 28 31
    840225.93405  23536907.04505    647769.93146  23536911.06846
    648646.18805  23492179.10705    498410.26746  23492181.91646
  -3154463.96907  20695638.30307  -2447298.07348  20695637.56848
  -4001542.28107  19488832.35707  -3107024.39448  19488829.53348
   -539402.10905  20939346.29505   -420774.66446  20939346.77146
  -6919720.79306  22396956.74806  -5374807.12547  22396956.04147
   -623429.49207  20489326.55307   -486980.65648  20489324.99448
 04  2 13  3 10 44.9980000  0  6  3  8 11 27 28 31
    656372.49205  23493649.56805    504430.65546  23493652.90846
  -3183686.87907  20690077.38907  -2470069.19048  20690076.48648
  -4041878.20707  19481156.58407  -3138454.98448  19481153.68248
   -540629.87105  20939111.99805   -421731.43146  20939113.18646
  -6998558.36707  22381954.59207  -5436238.97347  22381953.44747
   -628433.98807  20488374.16207   -490880.26848  20488372.99448
 04  2 13  3 10 59.9980000  0  6  3  8 11 27 28 31
    664102.59805  23495120.78705    510454.05746  23495123.66646
  -3212752.55107  20684546.35007  -2492717.77148  20684544.91248
  -4082087.38307  19473504.99007  -3169786.79849  19473502.44749
   -541755.00805  20938898.35705   -422608.18546  20938899.24846
  -7077373.11307  22366956.05307  -5497653.06747  22366954.51447
   -633393.76607  20487430.39607   -494745.03748  20487428.83448
 04  2 13  3 11 14.9980000  0  6  3  8 11 27 28 31
    671836.65605  23496592.03705    516480.55346  23496595.20146
  -3241660.86307  20679045.07607  -2515243.74748  20679043.58048
  -4122169.34007  19465877.63907  -3201019.49049  19465875.17449
   -542777.68005  20938703.60005   -423405.08546  20938704.19346
  -7156164.48006  22351962.92006  -5559048.89447  22351961.24847
   -638308.69107  20486495.05307   -498574.85648  20486493.52148
 04  2 13  3 11 29.9980000  0  6  3  8 11 27 28 31
    679575.55905  23498064.71705    522510.82746  23498067.27546
  -3270410.83207  20673573.95907  -2537646.34848  20673573.20548
  -4162123.55107  19458274.63107  -3232152.62749  19458272.22549
   -543696.98805  20938528.93605   -424121.51246  20938528.65446
  -7234931.18406  22336974.13106  -5620425.52647  22336972.00247
   -643177.87907  20485568.82607   -502369.03248  20485567.03748
 04  2 13  3 11 44.9980000  0  6  3  8 11 27 28 31
    687319.56305  23499538.90405    528545.05546  23499541.15846
  -3299002.40207  20668133.21707  -2559925.50448  20668132.71748
  -4201949.84807  19450696.04507  -3263186.09748  19450693.57248
   -544513.21106  20938374.17006   -424757.55246  20938372.89346
  -7313672.69906  22321990.56106  -5681782.52747  22321988.02947
   -648001.12907  20484650.46707   -506127.41448  20484649.58848
 04  2 13  3 11 59.9980000  0  6  3  8 11 27 28 31
    695069.98405  23501014.29505    534584.31546  23501016.16646
  -3327434.32407  20662722.56107  -2582080.25448  20662722.03348
  -4241647.01207  19443141.71707  -3294118.94048  19443139.02948
   -545225.53905  20938238.60705   -425312.67146  20938236.34646
  -7392387.64807  22307011.77907  -5743118.83447  22307009.11547
   -652777.41007  20483741.44307   -509849.20048  20483740.02948
 04  2 13  3 12 14.9980000  0  6  3  8 11 27 28 31
    702825.98405  23502489.27105    540627.83446  23502491.78346
  -3355707.31607  20657342.77107  -2604111.17648  20657341.54948
  -4281215.62507  19435612.24807  -3324951.62648  19435609.24448
   -545834.65606  20938123.20106   -425787.32746  20938120.53346
  -7471076.37506  22292037.42806  -5804434.70647  22292035.09247
   -657507.24607  20482841.43607   -513534.79748  20482840.29948
 04  2 13  3 12 29.9980000  0  6  3  8 11 27 28 31
    710587.37905  23503966.82605    546675.67146  23503969.13546
  -3383821.83207  20651992.56107  -2626018.58848  20651991.79548
  -4320656.09007  19428106.58407  -3355684.45948  19428104.04548
   -546341.32406  20938025.76406   -426182.12946  20938023.97146
  -7549738.94506  22277068.60006  -5865730.18647  22277066.93647
   -662191.21907  20481950.05307   -517184.65248  20481948.92848
 04  2 13  3 12 44.9980000  0  6  3  8 11 27 28 31
    718353.93405  23505444.48205    552727.55946  23505446.35046
  -3411778.02007  20646672.68607  -2647802.65048  20646671.40848
  -4359968.48407  19420625.65407  -3386317.49448  19420622.91248
   -546745.95306  20937950.05306   -426497.47846  20937947.25246
  -7628375.16806  22262104.65406  -5927005.11847  22262102.92447
   -666829.37107  20481067.52907   -520798.81048  20481066.40448
 04  2 13  3 12 59.9980000  0  6  3  8 11 27 28 31
    726125.73005  23506922.93605    558783.40246  23506925.41646
  -3439575.94907  20641382.94307  -2669463.39348  20641382.45948
  -4399152.87107  19413169.57607  -3416850.79248  19413166.91648
   -547048.84406  20937891.64606   -426733.49346  20937890.22146
  -7706984.81606  22247145.36506  -5988259.36547  22247142.67447
   -671421.96107  20480193.39607   -524377.46448  20480192.90448
 04  2 13  3 13 14.9980000  0  6  3  8 11 27 28 31
    733901.16405  23508402.52905    564842.18446  23508404.93246
  -3467217.18407  20636123.26407  -2691002.04248  20636122.64648
  -4438210.78907  19405737.32607  -3447285.53148  19405734.22148
   -547251.94106  20937853.27106   -426891.81146  20937852.46346
  -7785569.06306  22232191.59206  -6049493.81847  22232189.77147
   -675970.39807  20479328.02107   -527921.71448  20479327.24848
 04  2 13  3 13 29.9970000  0  6  3  8 11 27 28 31
    741680.56305  23509882.93105    570904.02846  23509885.05646
  -3494699.19107  20630893.72807  -2712416.60348  20630892.84948
  -4477138.87507  19398329.29807  -3477619.10048  19398326.68848
   -547354.57006  20937833.25906   -426971.78646  20937833.82546
  -7864121.77006  22217243.36806  -6110703.68647  22217241.90747
   -680473.80907  20478471.14207   -531430.86848  20478469.96648
 04  2 13  3 13 44.9970000  0  6  3  8 11 27 28 31
    749464.15205  23511364.85305    576969.07046  23511366.72846
  -3522026.57007  20625693.40707  -2733710.67148  20625692.49748
  -4515943.02707  19390944.91507  -3507856.09248  19390942.76748
   -547358.03906  20937832.22806   -426974.51446  20937832.84546
  -7942653.78506  22202299.25906  -6171897.43547  22202297.17747
   -684933.55107  20477622.32907   -534906.01148  20477621.59948
 04  2 13  3 13 59.9970000  0  6  3  8 11 27 28 31
    757251.87505  23512846.50905    583037.46046  23512847.70046
  -3549197.08207  20620523.07107  -2754882.52048  20620522.43148
  -4554620.30907  19383585.01707  -3537994.22048  19383582.63848
   -547262.09406  20937851.21206   -426899.77946  20937851.34146
  -8021159.24607  22187359.89207  -6233070.47847  22187357.66947
   -689349.02707  20476782.37607   -538346.64948  20476780.83348
 04  2 13  3 14 14.9970000  0  6  3  8 11 27 28 31
    765043.19905  23514329.82105    589108.50046  23514330.73946
  -3576211.13307  20615382.72807  -2775932.46448  20615381.64248
  -4593171.06607  19376248.92307  -3568033.78148  19376246.77848
   -547067.43806  20937887.81306   -426748.13446  20937888.84146
  -8099638.07407  22172425.90707  -6294222.82347  22172423.98947
   -693720.31607  20475950.23507   -541752.89548  20475948.87648
 04  2 13  3 14 29.9970000  0  6  3  8 11 27 28 31
    772838.52005  23515812.73505    595182.75346  23515814.43846
  -3603068.60207  20610271.68107  -2796860.36148  20610271.56048
  -4631595.15607  19368936.96207  -3597974.60948  19368934.91148
   -546774.07406  20937944.50906   -426519.56646  20937943.93146
  -8178089.81306  22157496.79006  -6355354.01847  22157495.46647
   -698048.23807  20475126.92307   -545125.31348  20475125.48548
 04  2 13  3 14 44.9970000  0  6  3  8 11 27 28 31
    780638.10505  23517297.43805    601260.33746  23517298.38846
  -3629769.35507  20605190.60307  -2817666.15648  20605190.54048
  -4669892.47307  19361649.38407  -3627816.66748  19361647.17348
   -546382.15606  20938019.01706   -426214.23446  20938018.58346
  -8256514.10906  22142572.85306  -6416463.82747  22142572.24747
   -702331.38707  20474312.04007   -548462.83548  20474309.99348
 04  2 13  3 14 59.9970000  0  6  3  8 11 27 28 31
    788440.90205  23518781.84505    607340.32546  23518783.63846
  -3656314.25807  20600139.28207  -2838350.50448  20600138.64948
  -4708063.87907  19354385.74307  -3657560.60148  19354383.06048
   -545892.92206  20938112.10306   -425833.05046  20938111.38846
  -8334911.55506  22127654.45406  -6477552.72747  22127653.54847
   -706571.49207  20473505.29807   -551766.83148  20473503.52848
 04  2 13  3 15 14.9970000  0  6  3  8 11 27 28 31
    796246.55105  23520267.23505    613422.64446  23520269.13046
  -3682703.88707  20595117.74307  -2858913.88448  20595116.81048
  -4746109.60507  19347146.00107  -3687206.63648  19347143.19248
   -545306.88706  20938223.25906   -425376.45746  20938222.65346
  -8413282.06606  22112741.11806  -6538620.63447  22112739.99747
   -710768.65207  20472706.43107   -555037.39448  20472703.99348
 04  2 13  3 15 29.9970000  0  6  3  8 11 27 28 31
    804055.86305  23521753.57105    619507.73446  23521756.75546
  -3708937.47707  20590125.88407  -2879355.64848  20590125.18848
  -4784029.07807  19339930.12607  -3716754.26048  19339927.40348
   -544623.80506  20938353.46206   -424844.27146  20938353.38846
  -8491624.72706  22097832.98506  -6599666.83647  22097831.72847
   -714922.46107  20471916.06307   -558274.13848  20471914.07548
 04  2 13  3 15 44.9970000  0  6  3  8 11 27 28 31
    811869.07805  23523240.57905    625595.95246  23523243.36846
  -3735014.98807  20585163.09507  -2899675.80948  20585162.93548
  -4821822.05107  19332738.61807  -3746203.32448  19332735.46248
   -543843.72706  20938502.13406   -424236.42346  20938501.53246
  -8569939.07006  22082930.21206  -6660691.00747  22082928.88447
   -719032.60507  20471133.93807   -561476.86248  20471131.76348
 04  2 13  3 15 59.9970000  0  6  3  8 11 27 28 31
    819686.13305  23524728.18105    631687.08246  23524730.73546
  -3760936.32407  20580230.54007  -2919874.26548  20580230.20048
  -4859488.58607  19325571.14207  -3775553.86648  19325567.93848
   -542966.88306  20938669.45406   -423553.24646  20938668.29046
  -8648224.72306  22068033.11806  -6721692.78347  22068031.60647
   -723099.06307  20470360.18107   -564645.54948  20470357.98148
 04  2 13  3 16 14.9970000  0  6  3  8 11 27 28 31
    827506.15206  23526216.38406    637780.52846  23526218.69646
  -3786702.82807  20575327.30607  -2939952.08748  20575327.01348
  -4897029.79707  19318426.30607  -3804806.75748  19318423.69648
   -541994.71506  20938854.03206   -422795.76246  20938853.07546
  -8726482.47706  22053141.16506  -6782672.85547  22053140.27847
   -727123.07407  20469594.14907   -567781.16448  20469592.31348
 04  2 13  3 16 29.9970000  0  6  3  8 11 27 28 31
    835329.40606  23527704.90706    643876.59246  23527707.51346
  -3812314.09407  20570453.72807  -2959908.94448  20570452.94648
  -4934445.27707  19311306.56307  -3833961.65948  19311303.41948
   -540927.03506  20939057.03206   -421963.86346  20939056.69646
  -8804711.61306  22038255.11806  -6843630.60347  22038253.58747
   -731104.10507  20468836.86007   -570883.29848  20468835.23148
 04  2 13  3 16 44.9970000  0  6  3  8 11 27 28 31
    843156.29706  23529194.55606    649975.41046  23529197.41946
  -3837769.80107  20565609.30607  -2979744.56948  20565608.74748
  -4971734.54707  19304210.62607  -3863018.21348  19304207.85348
   -539763.87506  20939278.97006   -421057.49746  20939278.52446
  -8882911.42606  22023373.61806  -6904565.48547  22023371.73947
   -735042.06307  20468087.41507   -573951.85448  20468085.55248
 04  2 13  3 16 59.9970000  0  6  3  8 11 27 28 31
    850986.29306  23530685.04806    656076.62546  23530687.00546
  -3863070.54707  20560794.93807  -2999459.46248  20560793.95448
  -5008898.25807  19297138.77407  -3891976.93848  19297136.04048
   -538505.98005  20939517.77405   -420077.36746  20939518.09946
  -8961082.13306  22008498.23506  -6965477.74147  22008496.98947
   -738937.36307  20467346.04807   -576987.18048  20467345.03248
 04  2 13  3 17 14.9970000  0  6  3  8 11 27 28 31
    858819.45705  23532175.22005    662180.31246  23532177.76746
  -3888216.30107  20556009.82907  -3019053.58148  20556009.35348
  -5045936.36307  19290090.79807  -3920837.79748  19290087.47448
   -537153.67605  20939775.28205   -419023.61446  20939775.88446
  -9039223.39106  21993628.23506  -7026367.00547  21993627.92747
   -742790.04307  20466612.93107   -579989.29448  20466611.44648
 04  2 13  3 17 29.9970000  0  6  3  8 11 27 28 31
    866656.59406  23533666.60306    668287.16746  23533669.19646
  -3913206.43407  20551254.61807  -3038526.42648  20551253.95848
  -5082848.14107  19283066.68807  -3949600.20948  19283063.62248
   -535706.29705  20940050.08705   -417895.76445  20940051.33745
  -9117334.15606  21978764.08706  -7087232.50247  21978763.77447
   -746599.34807  20465888.26707   -582957.60548  20465887.17748
 04  2 13  3 17 44.9970000  0  6  3  8 11 27 28 31
    874497.16406  23535158.89206    674396.65446  23535162.05646
  -3938041.44907  20546528.51707  -3057878.40248  20546527.81048
  -5119634.03907  19276066.68107  -3978264.53748  19276063.48548
   -534164.86305  20940343.19605   -416694.77745  20940344.05645
  -9195414.71506  21963906.27406  -7148074.47447  21963905.38047
   -750365.75407  20465171.39207   -585892.48348  20465170.23148
 04  2 13  3 17 59.9970000  0  6  3  8 11 27 28 31
    882341.11705  23536650.43105    680508.79646  23536654.52446
  -3962721.73807  20541831.99307  -3077109.79648  20541831.27848
  -5156294.33607  19269090.42307  -4006830.99348  19269087.68548
   -532529.70703  20940653.22003   -415420.59845  20940655.12245
  -9273464.81607  21949054.41507  -7208892.72447  21949052.82947
   -754089.60207  20464462.63407   -588794.19648  20464461.82948
 04  2 13  3 18 14.9970000  0  6  3  8 11 27 28 31
    890188.11305  23538143.84505    686623.21046  23538147.42346
  -3987247.82407  20537165.04807  -3096221.06048  20537163.93848
  -5192829.32807  19262137.74307  -4035299.82648  19262135.24348
   -530801.62103  20940981.59503   -414074.08645  20940983.10345
  -9351484.62506  21934207.43106  -7269687.37747  21934206.39947
   -757771.32407  20463761.96207   -591663.10148  20463761.70848
 04  2 13  3 18 29.9970000  0  6  3  8 11 27 28 31
    898038.31305  23539638.58705    692740.22746  23539641.36046
  -4011619.44907  20532527.31307  -3115211.93648  20532526.28648
  -5229238.93407  19255209.47007  -4063670.92748  19255206.32948
   -528980.79703  20941328.90703   -412655.23445  20941329.72445
  -9429473.59806  21919366.50106  -7330457.98747  21919365.71647
   -761410.78907  20463069.80607   -594499.05148  20463069.25148
 04  2 13  3 18 44.9970000  0  7  3  8 11 20 27 28 31
    905891.28905  23541133.07905    698859.35146  23541136.42746
  -4035837.02007  20527918.61807  -3134082.76848  20527917.66948
  -5265523.35507  19248304.33707  -4091944.49948  19248301.63448
   -203596.82416  23544585.91506   -139526.09856  23544590.91946
   -527067.48403  20941693.42303         0.00000         0.00000
  -9507431.75006  21904531.70406  -7391204.56047  21904530.51347
   -765008.15607  20462385.18807   -597302.20948  20462384.61848
 04  2 13  3 18 59.9970000  0  7  3  8 11 20 27 28 31
    913746.63305  23542627.37605    704980.44146  23542631.07546
  -4059901.32807  20523339.14207  -3152834.18748  20523338.50148
  -5301683.44907  19241423.12607  -4120121.19148  19241420.68548
   -287053.15606  23528704.11806   -204556.77446  23528709.27146
   -525062.93003  20942075.25903         0.00000         0.00000
  -9585359.35206  21889702.36806  -7451927.34747  21889701.14247
   -768564.23807  20461708.63407   -600073.20648  20461706.73148
 04  2 13  3 19 14.9970000  0  7  3  8 11 20 27 28 31
    921603.35905  23544122.35305    711102.43446  23544126.78646
  -4083813.33607  20518789.46207  -3171466.94648  20518788.08748
  -5337720.18407  19234566.07107  -4148201.75548  19234563.03648
   -370519.63705  23512820.61805   -269595.41646  23512824.80646
   -522968.39803  20942473.94603         0.00000         0.00000
  -9663257.07006  21874878.58706  -7512626.85847  21874877.20847
   -772080.03507  20461039.72007   -602812.81848  20461037.80648
 04  2 13  3 19 29.9970000  0  7  3  8 11 20 27 28 31
    929461.57805  23545617.64905    717225.65746  23545621.89246
  -4107573.15207  20514267.93107  -3189981.10148  20514266.62248
  -5373633.57807  19227731.71207  -4176186.21048  19227728.63848
   -453995.72705  23496936.00105   -334641.54346  23496939.24346
   -520784.02302  20942889.57102         0.00000         0.00000
  -9741124.60506  21860060.75906  -7573302.82347  21860059.43147
   -775555.57007  20460378.35307   -605521.03848  20460376.14248
 04  2 13  3 19 44.9970000  0  6  8 11 20 27 28 31
  -4131181.74607  20509775.11007  -3208377.42548  20509774.18848
  -5409424.62907  19220921.01707  -4204075.33748  19220917.80248
   -537482.06305  23481048.86805   -399695.60246  23481052.21646
   -518511.19902  20943321.27402         0.00000         0.00000
  -9818962.51606  21845248.70406  -7633955.72147  21845246.79047
   -778991.77307  20459724.36007   -608198.61848  20459722.29048
 04  2 13  3 19 59.9970000  0  6  8 11 20 27 28 31
  -4154638.72307  20505311.26707  -3226655.61448  20505310.56748
  -5445092.59807  19214134.00107  -4231868.55048  19214130.73948
   -620977.76205  23465160.14905   -464757.05346  23465163.55246
   -516149.39802  20943770.74302         0.00000         0.00000
  -9896769.94506  21830442.58706  -7694584.88947  21830440.79447
   -782388.10207  20459078.18807   -610845.11248  20459076.43848
 04  2 13  3 20 14.9970000  0  6  8 11 20 27 28 31
  -4177943.11707  20500876.64907  -3244814.90748  20500876.51348
  -5480636.35907  19207370.06307  -4259565.00048  19207366.91148
   -704481.02706  23449269.61806   -529824.39446  23449273.29046
   -513697.97301  20944236.52401         0.00000         0.00000
  -9974545.36306  21815642.86006  -7755189.12847  21815640.54047
   -785743.39807  20458439.52407   -613459.65648  20458438.19648
 04  2 13  3 20 29.9970000  0  6  8 11 20 27 28 31
  -4201094.24607  20496471.07907  -3262854.75548  20496471.08748
  -5516055.57807  19200630.25107  -4287164.38148  19200627.37648
   -787991.02305  23433378.27405   -594896.92446  23433382.77846
   -511156.65202  20944720.63402         0.00000         0.00000
 -10052288.07006  21800848.00106  -7815767.83547  21800846.69647
   -789057.27307  20457808.57107   -616041.90448  20457807.94248
 04  2 13  3 20 44.9970000  0  6  8 11 20 27 28 31
  -4224090.96107  20492095.22007  -3280774.31048  20492095.00948
  -5551348.82407  19193914.04007  -4314665.61248  19193911.14948
   -871505.83606  23417486.80606   -659973.30546  23417489.50946
   -508524.36704  20945222.79804         0.00000         0.00000
 -10129996.28106  21786060.92306  -7876319.63947  21786059.48947
   -792328.32807  20457186.49307   -618590.79248  20457185.13048
 04  2 13  3 20 59.9970000  0  6  8 11 20 27 28 31
  -4246933.76607  20487748.61007  -3298573.92748  20487747.94248
  -5586516.39507  19187221.30607  -4342068.92248  19187218.48948
   -955025.60905  23401592.34505   -725053.45746  23401595.91146
   -505801.76604  20945740.81304         0.00000         0.00000
 -10207670.03106  21771279.76706  -7936844.62247  21771278.76747
   -795556.95707  20456572.18107   -621106.62148  20456570.86448
 04  2 13  3 21 14.9970000  0  6  8 11 20 27 28 31
  -4269621.44907  20483431.32107  -3316252.65648  20483430.51348
  -5621557.21507  19180553.63407  -4369373.46448  19180550.65748
  -1038548.58605  23385698.73505   -790136.18746  23385702.21646
   -502987.90205  20946276.85305         0.00000         0.00000
 -10285307.86706  21756506.11806  -7997341.62147  21756504.30247
   -798741.91807  20455965.83707   -623588.42848  20455964.62648
 04  2 13  3 21 29.9970000  0  6  8 11 20 27 28 31
  -4292156.16007  20479143.28207  -3333812.19348  20479142.34948
  -5656473.23807  19173909.28207  -4396580.75248  19173906.95448
  -1122076.39106  23369803.49306   -855222.70646  23369806.53246
   -500085.26605  20946828.75105         0.00000         0.00000
 -10362911.36706  21741738.61006  -8057811.85847  21741736.61447
   -801885.36707  20455367.82107   -626037.87148  20455367.10648
 04  2 13  3 21 44.9970000  0  6  8 11 20 27 28 31
  -4314537.34407  20474884.20407  -3351252.09748  20474883.40748
  -5691263.89107  19167288.82107  -4423690.34948  19167286.18848
  -1205607.84806  23353908.04006   -920312.07246  23353911.20046
   -497093.23004  20947397.90704         0.00000         0.00000
 -10440479.52306  21726977.82906  -8118254.56947  21726976.09547
   -804986.54707  20454777.46207   -628454.39048  20454776.64248
 04  2 13  3 21 59.9970000  0  6  8 11 20 27 28 31
  -4336764.59407  20470654.63407  -3368572.04648  20470653.66148
  -5725928.73407  19160692.57107  -4450701.91448  19160689.47448
  -1289142.27306  23338011.88406   -985403.67546  23338014.39246
   -494011.86705  20947984.52405         0.00000         0.00000
 -10518011.59806  21712224.25906  -8178669.15547  21712222.31047
   -808045.05507  20454195.45407   -630837.64748  20454194.51748
 04  2 13  3 22 14.9970000  0  6  8 11 20 27 28 31
  -4358839.17207  20466453.50907  -3385773.05348  20466452.96248
  -5760468.90207  19154119.97807  -4477616.35548  19154116.77848
  -1372680.18006  23322115.21206  -1050498.10146  23322118.41146
   -490842.41405  20948587.62605         0.00000         0.00000
 -10595508.38306  21697476.89206  -8239056.22947  21697475.20047
   -811062.05506  20453621.52406   -633188.58548  20453620.18848
 04  2 13  3 22 29.9970000  0  6  8 11 20 27 28 31
  -4380761.71107  20462282.34507  -3402855.56448  20462281.74748
  -5794885.08207  19147570.65707  -4504434.15948  19147567.45848
  -1456221.85906  23306217.57906  -1115595.41246  23306221.20846
   -487585.84405  20949207.68805   -380398.97157  20949210.11447
 -10672970.17606  21682736.61006  -8299416.05747  21682734.23147
   -814038.16406  20453054.96206   -635507.63448  20453054.06048
 04  2 13  3 22 44.9970000  0  6  8 11 20 27 28 31
  -4402531.73007  20458139.41507  -3419819.23048  20458138.84148
  -5829176.62507  19141045.28207  -4531154.84448  19141042.34948
  -1539766.26606  23290319.36006  -1180694.93046  23290322.97046
   -484241.89806  20949843.55606   -377793.35346  20949846.29846
 -10750396.11307  21668002.75107  -8359747.95747  21668000.36447
   -816972.85507  20452496.79807   -637794.41048  20452495.48148
 04  2 13  3 22 59.9970000  0  6  8 11 20 27 28 31
  -4424149.86707  20454025.55607  -3436664.53948  20454024.70848
  -5863344.19107  19134543.54807  -4557778.94548  19134540.11048
  -1623313.48406  23274421.24306  -1245796.56346  23274424.59146
   -480811.19906  20950497.61006   -375120.11746  20950499.46246
 -10827786.21107  21653275.83707  -8420051.91147  21653273.92347
   -819866.58607  20451946.03207   -640049.29248  20451944.50948
 04  2 13  3 23 14.9970000  0  6  8 11 20 27 28 31
  -4445616.36307  20449940.86807  -3453391.70648  20449939.59148
  -5897387.85507  19128064.99307  -4584306.48348  19128062.06048
  -1706863.18806  23258521.89206  -1310900.12146  23258525.36846
   -477294.28106  20951166.03206   -372379.71346  20951168.56046
 -10905140.34406  21638556.08706  -8480327.85848  21638554.30248
   -822719.44907  20451403.02407   -642272.31548  20451402.06748
 04  2 13  3 23 29.9970000  0  6  8 11 20 27 28 31
  -4466930.53907  20445884.57907  -3470000.16048  20445883.77448
  -5931306.88707  19121610.44607  -4610736.90948  19121607.04048
  -1790414.23006  23242622.57906  -1376004.75046  23242626.44246
   -473690.84006  20951852.93106   -369571.85746  20951853.94646
 -10982457.35207  21623843.46207  -8540574.85048  21623841.66148
   -825530.77707  20450868.15707   -644462.96248  20450866.87648
 04  2 13  3 23 44.9970000  0  6  8 11 20 27 28 31
  -4488093.46507  20441857.56307  -3486490.76848  20441856.83348
  -5965102.20707  19115179.16507  -4637070.92648  19115176.25148
  -1873967.03506  23226723.11006  -1441110.77446  23226726.70046
   -470001.92206  20952554.31306   -366697.40946  20952555.06346
 -11059737.98806  21609137.22806  -8600793.50647  21609135.43547
   -828301.53506  20450341.02406   -646621.99648  20450339.93848
 04  2 13  3 23 59.9970000  0  6  8 11 20 27 28 31
  -4509104.69507  20437859.23507  -3502863.17148  20437858.78648
  -5998773.32407  19108771.75107  -4663308.17748  19108769.11848
  -1957520.68806  23210823.00106  -1506217.51846  23210826.85346
   -466227.39506  20953272.77406   -363756.25846  20953273.12246
 -11136981.45306  21594437.72006  -8660983.20747  21594435.69247
   -831031.28907  20449821.54007   -648749.08548  20449820.43148
 04  2 13  3 24 14.9970000  0  6  8 11 20 27 28 31
  -4529964.77707  20433889.47007  -3519117.79648  20433889.28248
  -6032320.74207  19102387.77407  -4689449.04248  19102384.86048
  -2041075.19505  23194923.27405  -1571324.83946  23194927.20446
   -462367.96106  20954007.10306   -360748.94847  20954007.05247
 -11214187.71906  21579746.26706  -8721143.92848  21579743.80248
   -833720.37107  20449310.04007   -650844.48148  20449308.75548
 04  2 13  3 24 29.9970000  0  6  8 11 20 27 28 31
  -4550674.02307  20429948.75907  -3535254.91748  20429948.46648
  -6065744.57807  19096027.96207  -4715493.59248  19096024.70048
  -2124630.32806  23179022.40706  -1636432.66946  23179026.89946
   -458424.08206  20954757.13406   -357675.84847  20954757.48947
 -11291356.52007  21565061.64207  -8781275.46747  21565059.84547
   -836369.00807  20448805.73507   -652908.37248  20448804.90748
 04  2 13  3 24 44.9970000  0  6  8 11 20 27 28 31
  -4571232.28907  20426036.71207  -3551274.34248  20426036.23548
  -6099044.77007  19089690.55607  -4741441.79348  19089688.00948
  -2208185.46905  23163121.82905  -1701540.48446  23163126.72846
   -454395.82406  20955524.22806   -354536.94646  20955523.83746
 -11368487.46507  21550384.23507  -8841377.47547  21550382.17747
   -838976.96907  20448309.52407   -654940.55948  20448308.45848
 04  2 13  3 24 59.9970000  0  6  8 11 20 27 28 31
  -4591639.68807  20422153.75907  -3567176.23748  20422153.15748
  -6132221.34807  19083377.64907  -4767293.70048  19083374.69248
  -2291740.08206  23147222.62606  -1766647.93346  23147227.05646
   -450283.54706  20956306.73506   -351332.64746  20956306.19646
 -11445580.11307  21535713.28207  -8901449.65947  21535711.81347
   -841544.30907  20447821.07107   -656941.09148  20447820.01348
 04  2 13  3 25 14.9970000  0  6  8 11 20 27 28 31
  -4611897.67607  20418298.71207  -3582961.70948  20418298.14248
  -6165275.66806  19077087.48506  -4793050.31848  19077084.42748
  -2375295.12905  23131322.05605  -1831755.67846  23131326.99746
   -446088.87906  20957104.55606   -348064.15947  20957105.07547
 -11522635.42606  21521050.12606  -8961492.75347  21521048.22847
   -844072.41006  20447339.79806   -658911.05048  20447339.02148
 04  2 13  3 25 29.9960000  0  6  8 11 20 27 28 31
  -4632003.27007  20414472.34807  -3598628.42948  20414472.10948
  -6198203.74207  19070821.61307  -4818708.58048  19070818.39548
  -2458842.71905  23115423.63705  -1896857.64746  23115428.10946
   -441810.68406  20957918.81606   -344730.51847  20957919.39147
 -11599646.32006  21506395.93406  -9021501.22147  21506394.27347
   -846559.29307  20446866.60607   -660848.89248  20446866.15648
 04  2 13  3 25 44.9960000  0  6  8 11 20 27 28 31
  -4651961.55507  20410674.27007  -3614180.34348  20410674.51648
  -6231012.27007  19064578.09007  -4844273.65948  19064575.03148
  -2542395.96505  23099523.73805  -1961963.97946  23099527.77346
   -437450.85206  20958749.23106   -341333.28447  20958748.71947
 -11676624.89506  21491747.55106  -9081484.50547  21491745.31647
   -849007.61707  20446400.69907   -662756.68348  20446400.46548
 04  2 13  3 25 59.9960000  0  6  8 11 20 27 28 31
  -4671769.63707  20406905.07407  -3629615.24448  20406904.64548
  -6263697.46907  19058358.52007  -4869742.65948  19058355.55148
  -2625947.23405  23083624.76205  -2027068.74546  23083628.00446
   -433008.37906  20959593.82406   -337871.69247  20959594.63347
 -11753563.97306  21477106.38706  -9141437.03447  21477103.89547
   -851415.45707  20445942.35607   -664632.93848  20445942.18048
 04  2 13  3 26 14.9960000  0  6  8 11 20 27 28 31
  -4691427.95707  20403164.10607  -3644933.43548  20403164.39148
  -6296259.80507  19052161.97307  -4895115.90948  19052159.28148
  -2709496.50005  23067726.33205  -2092171.99746  23067730.12946
   -428483.79706  20960455.30106   -334346.06947  20960455.31347
 -11830463.67606  21462472.47306  -9201358.85747  21462470.42647
   -853783.36707  20445492.00407   -666478.06348  20445491.83248
 04  2 13  3 26 29.9960000  0  6  8 11 20 27 28 31
  -4710936.82807  20399451.36307  -3660135.18848  20399451.48848
  -6328699.39507  19045989.27007  -4920393.52348  19045986.58248
  -2793043.37505  23051827.03505  -2157273.37946  23051831.91446
   -423877.68806  20961332.06606   -330756.95647  20961331.94947
 -11907323.73406  21447846.84006  -9261249.79947  21447844.76647
   -856111.36707  20445049.08207   -668292.10548  20445048.50848
 04  2 13  3 26 44.9960000  0  6  8 11 20 27 28 31
  -4730296.51207  20395767.75407  -3675220.68648  20395767.42648
  -6361016.34807  19039839.59007  -4945575.56448  19039836.91448
  -2876587.50005  23035928.62905  -2222372.58146  23035933.52346
   -419190.50406  20962223.71506   -327104.66846  20962224.10946
 -11984144.05506  21433228.35606  -9321109.78847  21433225.97747
   -858399.69907  20444613.69907   -670075.24248  20444612.98448
 04  2 13  3 26 59.9960000  0  6  8 11 20 27 28 31
  -4749507.99607  20392111.80107  -3690190.73148  20392111.53148
  -6393211.62507  19033713.14507  -4970662.81748  19033710.11348
  -2960129.26605  23020031.15205  -2287469.93546  23020036.00446
   -414423.34406  20963130.37906   -323390.04346  20963132.24246
 -12060924.91806  21418617.26206  -9380939.01647  21418615.29747
   -860649.13307  20444185.51207   -671828.06248  20444183.93448
 04  2 13  3 27 14.9960000  0  6  8 11 20 27 28 31
  -4768570.22307  20388484.41007  -3705044.43448  20388483.76248
  -6425284.18407  19027609.62107  -4995654.42448  19027606.89848
  -3043667.26605  23004134.62105  -2352564.31846  23004138.62946
   -409575.41806  20964053.12106   -319612.51946  20964054.34046
 -12137665.12906  21404013.88706  -9440736.56947  21404011.82447
   -862858.60907  20443764.94107   -673549.76148  20443763.14848
 04  2 13  3 27 29.9960000  0  6  8 11 20 27 28 31
  -4787483.21107  20384885.75407  -3719781.84448  20384884.89148
  -6457233.92606  19021529.52706  -5020550.31948  19021527.20748
  -3127200.82005  22988238.41005  -2417655.26446  22988242.78946
   -404646.87106  20964991.66806   -315772.10046  20964992.19546
 -12214364.08206  21389419.01206  -9500501.97047  21389416.53547
   -865028.00407  20443352.41007   -675240.22648  20443350.80548
 04  2 13  3 27 44.9960000  0  6  8 11 20 27 28 31
  -4806247.73407  20381315.02007  -3734403.56448  20381313.91448
  -6489061.43406  19015472.88706  -5045350.97448  19015470.68048
  -3210730.14806  22972343.58206  -2482742.95046  22972347.91446
   -399638.55106  20965944.24606   -311869.59646  20965945.03546
 -12291021.95306  21374831.21506  -9560235.37847  21374829.34847
   -867157.90207  20442947.29307   -676899.89948  20442945.80148
 04  2 13  3 27 59.9960000  0  6  8 11 20 27 28 31
  -4824864.46507  20377772.35607  -3748910.14648  20377771.34448
  -6520767.40207  19009439.43407  -5070056.91748  19009436.85648
  -3294255.42206  22956449.47306  -2547827.43246  22956453.10646
   -394551.47706  20966912.48806   -307905.71246  20966912.86746
 -12367639.08206  21360251.07406  -9619937.03147  21360249.50047
   -869248.92607  20442549.43407   -678529.30548  20442547.79748
 04  2 13  3 28 14.9960000  0  6  8 11 20 27 28 31
  -4843333.18407  20374257.94107  -3763301.36748  20374257.03948
  -6552351.52306  19003429.32406  -5094667.93848  19003426.52048
  -3377775.85206  22940555.91806  -2612908.19046  22940559.74646
   -389385.57006  20967895.44106   -303880.37846  20967896.41046
 -12444214.85206  21345679.24606  -9679606.42647  21345677.31647
   -871300.78506  20442158.47306   -680128.16348  20442157.15248
 04  2 13  3 28 29.9960000  0  6  8 11 20 27 28 31
  -4861653.97307  20370771.66007  -3777577.31848  20370771.03148
  -6583813.60906  18997442.20706  -5119183.84348  18997439.52748
  -3461290.71105  22924662.76205  -2677984.49246  22924667.20346
   -384140.89506  20968893.48806   -299793.71147  20968894.75447
 -12520748.59006  21331115.38706  -9739243.09247  21331113.74647
   -873313.29706  20441775.73106   -681696.35748  20441774.24248
 04  2 13  3 28 44.9960000  0  6  8 11 20 27 28 31
  -4879826.87507  20367313.52707  -3791738.02748  20367312.78148
  -6615153.73006  18991478.87106  -5143604.72348  18991475.65248
  -3544799.71506  22908771.90206  -2743056.30946  22908775.80946
   -378817.85506  20969907.00406   -295645.97446  20969907.48446
 -12597240.07806  21316559.24606  -9798846.82247  21316557.93847
   -875286.43806  20441400.49606   -683233.89848  20441398.47748
 04  2 13  3 28 59.9960000  0  6  8 11 20 27 28 31
  -4897851.84407  20363883.37907  -3805783.48848  20363882.85948
  -6646371.77307  18985538.19107  -5167930.46948  18985535.25048
  -3628302.21905  22892881.57405  -2808123.06046  22892885.23846
   -373416.50006  20970934.53506   -291437.15446  20970934.87146
 -12673688.71906  21302012.02706  -9858417.18247  21302009.94147
   -877219.98006  20441032.41006   -684740.55648  20441030.77748
 04  2 13  3 29 14.9960000  0  6  8 11 20 27 28 31
  -4915730.24607  20360481.08207  -3819714.72648  20360481.27348
  -6677469.04707  18979620.51207  -5192162.10348  18979617.56648
  -3711798.95705  22876993.28505  -2873185.32246  22876996.18046
   -367938.45705  20971975.60605   -287168.64846  20971977.33646
 -12750095.47706  21287472.15206  -9917954.91047  21287470.45747
   -879115.34806  20440671.71506   -686217.49348  20440670.61748
 04  2 13  3 29 29.9960000  0  6  8 11 20 27 28 31
  -4933461.32007  20357107.16807  -3833531.16348  20357107.03548
  -6708444.72306  18973725.69906  -5216298.99748  18973722.76248
  -3795288.60505  22861105.37105  -2938242.03146  22861108.69146
   -362383.09806  20973033.50406   -282839.85146  20973035.23846
 -12826459.03506  21272940.49606  -9977458.96447  21272939.10947
   -880971.45706  20440318.51206   -687663.83248  20440317.06648
 04  2 13  3 29 44.9960000  0  6  8 11 20 27 28 31
  -4951045.36307  20353761.27007  -3847233.05448  20353760.60948
  -6739299.13307  18967854.35607  -5240341.39648  18967851.62948
  -3878770.86705  22845219.28505  -3003293.00546  22845223.09446
   -356750.90205  20974104.55105   -278451.18746  20974106.94546
 -12902779.16806  21258417.34006 -10036929.20447  21258415.47347
   -882788.52307  20439972.95707   -689079.75848  20439971.87148
 04  2 13  3 29 59.9960000  0  6  8 11 20 27 28 31
  -4968482.77007  20350442.47307  -3860820.66948  20350442.56348
  -6770032.30106  18962006.00406  -5264289.32348  18962003.44548
  -3962245.59405  22829334.39505  -3068338.03246  22829337.94546
   -351042.25006  20975191.57406   -274002.95246  20975193.58646
 -12979055.86306  21243902.19106 -10096365.58347  21243900.61747
   -884566.76207  20439634.48107   -690465.42348  20439633.55148
 04  2 13  3 30 14.9960000  0  6  8 11 20 27 28 31
  -4985773.37106  20347152.58206  -3874293.88948  20347152.48848
  -6800643.96107  18956181.05107  -5288142.55948  18956178.36748
  -4045711.98405  22813451.02705  -3133376.60746  22813454.86346
   -345257.31306  20976292.49606   -269495.26746  20976294.14546
 -13055288.45306  21229395.58206 -10155767.60647  21229393.96547
   -886306.06606  20439303.22306   -691820.73448  20439302.98148
 04  2 13  3 30 29.9960000  0  6  8 11 20 27 28 31
  -5002918.03507  20343890.14507  -3887653.38348  20343889.57848
  -6831134.88707  18950378.71507  -5311901.71448  18950376.24648
  -4129170.38706  22797569.38706  -3198409.02246  22797573.00846
   -339397.07405  20977407.89505   -264928.88446  20977409.37546
 -13131477.20306  21214897.02006 -10215135.44147  21214896.12947
   -888006.94107  20438979.80907   -693146.11148  20438979.35248
 04  2 13  3 30 44.9960000  0  6  8 11 20 27 28 31
  -5019917.05106  20340655.06606  -3900899.38648  20340654.35648
  -6861505.53507  18944599.42607  -5335567.16348  18944596.97748
  -4212620.48806  22781689.81606  -3263434.91446  22781691.74646
   -333462.11306  20978537.39506   -260304.27946  20978538.46546
 -13207622.05106  21200407.71506 -10274469.07947  21200406.72347
   -889669.64107  20438663.26207   -694441.75048  20438662.75848
 04  2 13  3 30 59.9960000  0  6  8 11 20 27 28 31
  -5036770.08606  20337447.87106  -3914031.65548  20337447.63748
  -6891755.25007  18938842.98107  -5359138.36248  18938840.17248
  -4296061.37506  22765811.02006  -3328453.60346  22765813.69546
   -327452.05906  20979681.66006   -255621.19846  20979682.87946
 -13283722.06606  21185926.44106 -10333767.79648  21185924.96948
   -891293.66407  20438354.17607   -695707.24148  20438353.21948
 04  2 13  3 31 14.9960000  0  6  8 11 20 27 28 31
  -5053476.97306  20334268.69906  -3927050.04848  20334268.78548
  -6921883.96507  18933109.44907  -5382615.28148  18933107.22348
  -4379492.08206  22749934.91806  -3393464.45546  22749937.21546
   -321366.92606  20980840.71506   -250879.59746  20980840.65246
 -13359776.49206  21171453.56606 -10393030.98447  21171451.92647
   -892878.64507  20438052.50407   -696942.29548  20438051.51248
 04  2 13  3 31 29.9960000  0  6  8 11 20 27 28 31
  -5070038.46906  20331116.87906  -3939955.13147  20331117.05147
  -6951892.32007  18927399.65207  -5405998.41648  18927396.73848
  -4462913.08206  22734060.36306  -3458467.62546  22734062.60946
   -315207.78906  20982012.61306   -246080.34946  20982012.34046
 -13435785.76606  21156989.56606 -10452258.98047  21156988.03547
   -894425.39107  20437758.65207   -698147.57448  20437756.87948
 04  2 13  3 31 44.9960000  0  6  8 11 20 27 28 31
  -5086455.29706  20327993.59006  -3952747.49747  20327993.58647
  -6981780.69507  18921711.34007  -5429288.04748  18921709.37548
  -4546324.27705  22718187.71505  -3523463.22846  22718190.32046
   -308975.23006  20983197.95706   -241223.80846  20983198.45746
 -13511749.94506  21142534.34006 -10511451.83147  21142533.13747
   -895934.18406  20437471.40206   -699323.26348  20437469.67248
 04  2 13  3 31 59.9960000  0  6  8 11 20 27 28 31
  -5102727.42606  20324897.17606  -3965427.09648  20324897.45348
  -7011549.14507  18916046.99607  -5452484.25348  18916043.96148
  -4629725.20306  22702316.02006  -3588450.79446  22702319.60946
   -302669.69105  20984397.59005   -236310.50146  20984397.58246
 -13587668.71106  21128087.15206 -10570609.31248  21128085.97348
   -897405.05507  20437191.48807   -700469.42448  20437190.00048
 04  2 13  3 32 14.9960000  0  6  8 11 20 27 28 31
  -5118853.64506  20321828.39506  -3977993.00048  20321828.46948
  -7041196.32007  18910405.55907  -5475585.94248  18910402.67648
  -4713113.94906  22686447.62106  -3653428.87746  22686450.57046
   -296290.00005  20985610.97305   -231339.34746  20985611.52746
 -13663540.18006  21113649.83206 -10629729.91647  21113648.08247
   -898836.55506  20436919.08206   -701584.88848  20436916.98448
 04  2 13  3 32 29.9960000  0  6  8 11 20 27 28 31
  -5134835.84806  20318787.21506  -3990446.68548  20318786.44148
  -7070723.86707  18904786.51207  -5498594.42248  18904784.08648
  -4796491.71506  22670581.69106  -3718398.44546  22670583.93446
   -289838.06605  20986838.61305   -226311.88146  20986839.94546
 -13739365.63306  21099220.72306 -10688814.67748  21099218.86348
   -900230.30906  20436653.78506   -702670.96348  20436652.16848
 04  2 13  3 32 44.9960000  0  6  8 11 20 27 28 31
  -5150674.27007  20315773.08207  -4002788.32048  20315772.23448
  -7100132.18407  18899190.12907  -5521509.99348  18899187.81348
  -4879858.23006  22654717.51206  -3783359.20146  22654719.80946
   -283314.51205  20988080.12905   -221228.59946  20988081.87946
 -13815145.03107  21084799.99607 -10747863.55048  21084798.52348
   -901586.59407  20436395.96507   -703727.82948  20436394.02048
 04  2 13  3 32 59.9960000  0  6  8 11 20 27 28 31
  -5166367.44907  20312786.87107  -4015016.79448  20312786.30148
  -7129419.66807  18893617.18407  -5544331.41648  18893614.28148
  -4963211.45706  22638856.41806  -3848309.64546  22638858.09446
   -276717.96906  20989336.01206   -216088.47646  20989337.30546
 -13890876.28506  21070389.02706 -10806874.91248  21070387.34048
   -902903.78106  20436144.86306   -704754.23548  20436143.18048
 04  2 13  3 33 14.9960000  0  6  8 11 20 27 28 31
  -5181916.64507  20309827.96507  -4027133.07548  20309827.30548
  -7158587.34007  18888066.32407  -5567059.46948  18888063.67248
  -5046552.02006  22622996.51206  -3913250.20746  22622999.06346
   -270049.71906  20990605.02006   -210892.46546  20990605.45746
 -13966560.01207  21055987.08207 -10865849.22148  21055985.12148
   -904182.86307  20435901.81607   -705750.95348  20435900.29748
 04  2 13  3 33 29.9960000  0  6  8 11 20 27 28 31
  -5197322.33606  20306896.67606  -4039137.53548  20306895.88348
  -7187635.70307  18882538.47307  -5589694.55348  18882535.88348
  -5129879.87906  22607139.64506  -3978180.87846  22607141.88346
   -263310.56306  20991888.23806   -205641.23946  20991888.01246
 -14042196.46107  21041593.96507 -10924786.69448  21041592.38748
   -905424.35206  20435665.48106   -706718.36348  20435663.75848
 04  2 13  3 33 44.9960000  0  6  8 11 20 27 28 31
  -5212584.87106  20303992.73806  -4051030.43448  20303991.65248
  -7216564.89507  18877033.48807  -5612236.78548  18877030.77048
  -5213194.66406  22591284.44906  -4043101.32546  22591287.20746
   -256500.78906  20993183.49606   -200334.97847  20993184.80147
 -14117785.25006  21027209.27706 -10983687.03348  21027208.04348
   -906628.25006  20435436.76206   -707656.49148  20435435.13348
 04  2 13  3 33 59.9960000  0  6  8 11 20 27 28 31
  -5227704.27006  20301115.05106  -4062811.80248  20301114.60948
  -7245374.93007  18871551.02007  -5634686.17248  18871548.55548
  -5296495.76206  22575432.91006  -4108011.16746  22575435.14146
   -249620.61706  20994493.45706   -194973.84447  20994493.72747
 -14193325.91807  21012834.86307 -11042549.87948  21012833.29748
   -907794.34406  20435214.58206   -708565.16448  20435213.07848
 04  2 13  3 34 14.9960000  0  6  8 11 20 27 28 31
  -5242680.94507  20298264.91807  -4074481.94548  20298265.06648
  -7274066.18007  18866091.57407  -5657042.97248  18866089.02348
  -5379783.09405  22559584.16005  -4172910.22446  22559585.43046
   -242670.78506  20995816.14506   -189558.45047  20995816.50847
 -14268818.40206  20998468.69906 -11101375.18048  20998467.13348
   -908923.03907  20435000.09007   -709444.67648  20434998.33248
 04  2 13  3 34 29.9960000  0  6  8 11 20 27 28 31
  -5257514.93006  20295441.99606  -4086040.92248  20295442.04348
  -7302638.50407  18860654.57407  -5679307.12548  18860652.37548
  -5463055.99606  22543737.78506  -4237798.13046  22543738.85946
   -235651.20706  20997151.65206   -184088.63646  20997152.37146
 -14344262.14106  20984111.91806 -11160162.49247  20984110.60647
   -910014.09407  20434791.88707   -710294.87148  20434790.05948
 04  2 13  3 34 44.9960000  0  6  8 11 20 27 28 31
  -5272205.75806  20292646.49606  -4097488.33447  20292646.31347
  -7331091.30507  18855240.28507  -5701478.14548  18855238.29748
  -5546313.32806  22527894.16006  -4302673.83946  22527895.69546
   -228561.77006  20998499.98806   -178564.49346  20998501.26646
 -14419656.18806  20969765.03506 -11218911.09648  20969763.48448
   -911066.98407  20434592.32407   -711115.32048  20434590.87148
 04  2 13  3 34 59.9960000  0  6  8 11 20 27 28 31
  -5286755.15207  20289877.97307  -4108825.55748  20289877.62148
  -7359426.17207  18849848.41807  -5723557.26148  18849846.30148
  -5629556.28906  22512053.35606  -4367538.41546  22512055.28146
   -221404.30106  20999862.46506   -172987.31146  20999863.42646
 -14495001.71106  20955427.15206 -11277621.90048  20955425.89848
   -912083.21907  20434398.45707   -711907.21148  20434397.76248
 04  2 13  3 35 14.9960000  0  7  7  8 11 20 27 28 31
   -165884.03114  23114972.75404   -109833.34455  23114974.92645
  -5301162.83206  20287136.29306  -4120052.35347  20287136.21947
  -7387642.77307  18844478.77707  -5745544.21648  18844476.54748
  -5712783.89806  22496215.76206  -4432390.97046  22496217.56346
   -214178.50406  21001237.26206   -167356.84246  21001238.75046
 -14570297.79306  20941099.05106 -11336294.15247  20941097.60947
   -913062.22307  20434212.38707   -712670.07148  20434211.55948
 04  2 13  3 35 29.9960000  0  7  7  8 11 20 27 28 31
   -234677.37104  23101882.80104   -163438.53545  23101884.03145
  -5315428.54707  20284421.59007  -4131168.51548  20284421.39848
  -7415740.66807  18839131.76207  -5767438.67448  18839129.18848
  -5795995.38706  22480381.16006  -4497230.98446  22480382.91846
   -206884.41806  21002625.26206   -161673.21046  21002626.21546
 -14645543.89506  20926780.15206 -11394927.46447  20926778.60647
   -914003.73407  20434033.39507   -713403.72748  20434033.03148
 04  2 13  3 35 44.9960000  0  7  7  8 11 20 27 28 31
   -303467.41805  23088793.04305   -217041.17645  23088793.40245
  -5329555.39807  20281733.59007  -4142176.48348  20281733.09048
  -7443722.90207  18833806.68407  -5789243.01248  18833804.08248
  -5879193.15206  22464548.37906  -4562060.38746  22464551.40246
   -199525.25006  21004025.94106   -155938.86546  21004026.97346
 -14720742.42606  20912470.16806 -11453523.73247  20912469.05147
   -914910.53507  20433860.59807   -714110.34948  20433859.71548
 04  2 13  3 35 59.9960000  0  7  7  8 11 20 27 28 31
   -372253.71104  23075702.81604   -270640.91546  23075704.33646
  -5343543.23007  20279071.60607  -4153076.12048  20279071.51248
  -7471589.07007  18828504.19107  -5810956.91948  18828501.82448
  -5962376.31605  22448719.05905  -4626878.32546  22448721.73146
   -192100.83206  21005438.05106   -150153.70546  21005439.66846
 -14795892.47306  20898169.82406 -11512082.20448  20898167.92648
   -915782.30107  20433694.87907   -714789.67248  20433694.04748
 04  2 13  3 36 14.9960000  0  7  7  8 11 20 27 28 31
   -441036.03104  23062613.17604   -324237.48945  23062615.60245
  -5357391.98007  20276436.37907  -4163867.39248  20276436.52048
  -7499339.33207  18823223.34007  -5832580.50648  18823220.62948
  -6045544.31606  22432893.43406  -4691684.50046  22432895.37146
   -184611.41005  21006863.67605   -144317.84946  21006865.33246
 -14870993.81606  20883878.27006 -11570602.71347  20883877.25847
   -916618.83207  20433535.29307   -715441.52948  20433534.71548
 04  2 13  3 36 29.9960000  0  7  7  8 11 20 27 28 31
   -509814.28903  23049524.88703   -377830.81345  23049527.11745
  -5371101.77006  20273827.74606  -4174550.35548  20273827.75448
  -7526973.68007  18817964.69907  -5854113.76348  18817961.68048
  -6128696.69906  22417069.09006  -4756478.52246  22417071.84446
   -177057.29305  21008301.48805   -138431.53546  21008302.46146
 -14946045.93406  20869596.34006 -11629084.85148  20869595.12948
   -917420.19106  20433383.07406   -716065.97248  20433381.59048
 04  2 13  3 36 44.9960000  0  7  7  8 11 20 27 28 31
   -578588.19104  23036437.35604   -431420.86345  23036440.00045
  -5384672.57807  20271244.88707  -4185125.05848  20271245.41848
  -7554491.81307  18812728.51207  -5875556.48348  18812725.25448
  -6211832.69906  22401248.96506  -4821259.72246  22401250.95746
   -169438.57405  21009751.09805   -132494.95446  21009752.16846
 -15021048.21907  20855323.74607 -11687528.18648  20855322.27748
   -918186.10206  20433237.23806   -716662.79647  20433235.71947
 04  2 13  3 36 59.9960000  0  7  7  8 11 20 27 28 31
   -647357.05104  23023350.80904   -485006.93045  23023353.57045
  -5398104.14106  20268688.80106  -4195591.22748  20268689.31348
  -7581893.19507  18807514.33207  -5896908.21748  18807511.25048
  -6294951.28106  22385432.76206  -4886027.41746  22385434.09446
   -161754.89104  21011212.43404   -126507.75246  21011214.26646
 -15095999.77707  20841061.28507 -11745931.98548  20841059.37548
   -918915.93406  20433097.96506   -717231.51548  20433097.01648
 04  2 13  3 37 14.9950000  0  7  7  8 11 20 27 28 31
   -716115.30104  23010266.46004   -538584.69145  23010269.26545
  -5411394.60906  20266160.40506  -4205947.48247  20266159.83547
  -7609175.23007  18802322.73307  -5918166.94148  18802320.02348
  -6378045.48406  22369620.48306  -4950776.08246  22369622.03046
   -154006.14804  21012688.30404   -120469.80546  21012688.55846
 -15170894.20307  20826809.24907 -11804291.26947  20826806.65947
   -919608.75807  20432966.49907   -717771.39548  20432965.21848
 04  2 13  3 37 29.9950000  0  7  7  8 11 20 27 28 31
   -784873.01205  22997183.65505   -592162.13745  22997184.35145
  -5424547.12906  20263657.24906  -4216196.22647  20263657.10547
  -7636342.71507  18797152.76507  -5939336.41648  18797150.17548
  -6461127.02006  22353810.82706  -5015514.93346  22353811.47246
   -146192.70305  21014174.80405   -114381.43346  21014175.55846
 -15245742.21907  20812566.32707 -11862614.39048  20812563.81548
   -920265.59006  20432841.28006   -718283.20848  20432840.64848
 04  2 13  3 37 44.9950000  0  7  7  8 11 20 27 28 31
   -853625.51604  22984100.67104   -645735.51645  22984100.62045
  -5437560.64107  20261181.08507  -4226336.68747  20261180.76547
  -7663393.68007  18792005.58507  -5960415.10648  18792002.55048
  -6544189.79306  22338004.43706  -5080239.14146  22338005.27646
   -138315.29305  21015673.61605   -108243.24646  21015674.43746
 -15320538.34007  20798333.13207 -11920897.09248  20798330.36248
   -920886.33607  20432723.34307   -718766.93148  20432722.23048
 04  2 13  3 37 59.9950000  0  7  7  8 11 20 27 28 31
   -922372.33205  22971018.58505   -699304.44446  22971019.17546
  -5450435.13307  20258731.03007  -4236368.78347  20258730.47647
  -7690327.67207  18786879.64007  -5981402.63748  18786877.22648
  -6627232.93006  22322201.45206  -5144948.05946  22322202.70646
   -130373.60505  21017185.00705   -102054.97946  21017186.21046
 -15395281.70307  20784109.99107 -11979138.64248  20784107.47648
   -921470.41007  20432612.08507   -719222.05948  20432611.12848
 04  2 13  3 38 14.9950000  0  7  7  8 11 20 27 28 31
   -991112.91004  22957936.53004   -752868.49346  22957938.67946
  -5463170.42206  20256307.92906  -4246292.42047  20256306.83947
  -7717144.53507  18781776.35807  -6002298.89648  18781773.98348
  -6710255.64806  22306402.77306  -5209641.03246  22306405.04246
   -122367.81305  21018708.32705    -95816.74146  21018710.28846
 -15469971.77707  20769896.76507 -12037338.68448  20769894.74148
   -922017.68406  20432508.39006   -719648.51148  20432507.12448
 04  2 13  3 38 29.9950000  0  7  7  8 11 20 27 28 31
  -1059848.79303  22944856.57703   -806428.78746  22944859.36246
  -5475768.00807  20253910.59307  -4256108.74347  20253909.69047
  -7743845.84007  18776695.34307  -6023105.11648  18776693.03848
  -6793258.83206  22290608.20206  -5274318.82046  22290610.03446
   -114299.68805  21020244.42105    -89529.93546  21020244.36246
 -15544609.46107  20755694.06907 -12095497.89748  20755691.76148
   -922529.44907  20432411.04607   -720047.31948  20432409.74548
 04  2 13  3 38 44.9950000  0  7  7  8 11 20 27 28 31
  -1128579.18402  22931777.22602   -859984.92746  22931779.60546
  -5488227.63706  20251539.50706  -4265817.58147  20251539.34347
  -7770431.01607  18771636.57707  -6043820.85648  18771633.97248
  -6876241.49606  22274816.36606  -5338980.60746  22274819.10846
   -106168.80906  21021791.34306    -83194.22046  21021791.94446
 -15619193.87107  20741501.13207 -12153615.60948  20741498.74548
   -923005.16007  20432320.48307   -720418.01148  20432319.36648
 04  2 13  3 38 59.9950000  0  7  7  8 11 20 27 28 31
  -1197303.48404  22918700.03004   -913536.31146  22918702.25746
  -5500548.55506  20249194.72606  -4275418.32647  20249194.46047
  -7796899.28507  18766599.77307  -6064445.49048  18766597.26148
  -6959202.32406  22259029.59306  -5403625.35246  22259031.59346
    -97974.72706  21023350.68706    -76809.34946  21023352.05846
 -15693723.77307  20727318.56907 -12211690.85248  20727316.02348
   -923444.02007  20432236.93707   -720759.98248  20432235.91748
 04  2 13  3 39 14.9950000  0  7  7  8 11 20 27 28 31
  -1266021.49202  22905622.30402   -967082.73246  22905625.37046
  -5512731.23806  20246876.78806  -4284911.33447  20246876.53847
  -7823250.98407  18761585.49907  -6084979.29648  18761582.83148
  -7042141.05506  22243247.21006  -5468252.91346  22243249.03446
    -89717.96906  21024922.31206    -70375.58046  21024924.54646
 -15768198.96507  20713145.96807 -12269723.46648  20713143.88248
   -923846.13707  20432160.24907   -721073.32748  20432159.24148
 04  2 13  3 39 29.9950000  0  7  7  8 11 20 27 28 31
  -1334733.66401  22892546.30401  -1020624.58245  22892549.57345
  -5524776.30107  20244584.49107  -4294297.12047  20244584.47647
  -7849486.63307  18756592.77307  -6105422.67548  18756590.28048
  -7125057.67206  22227468.53006  -5532863.23846  22227470.03446
    -81399.20306  21026505.08506    -63893.49646  21026507.83546
 -15842619.61707  20698984.49107 -12327713.57548  20698982.30448
   -924211.91407  20432090.85807   -721358.37048  20432090.02648
 04  2 13  3 39 44.9950000  0  7  7  8 11 20 27 28 31
  -1403439.71101  22879470.05401  -1074161.72345  22879475.26545
  -5536683.48406  20242318.55406  -4303575.48447  20242318.31947
  -7875605.87507  18751622.77307  -6125775.35548  18751620.21448
  -7207951.32006  22211693.92906  -5597455.68447  22211696.51947
    -73018.49206  21028100.49906    -57363.17546  21028101.59346
 -15916984.92207  20684832.95207 -12385660.56248  20684831.01948
   -924541.04307  20432028.53007   -721614.85348  20432027.27648
 04  2 13  3 39 59.9950000  0  7  7  8 11 20 27 28 31
         0.00000  22866397.12401  -1127694.52055  22866402.22245
  -5548453.94906  20240078.47606  -4312747.29547  20240078.44447
  -7901609.54707  18746673.95207  -6146037.96048  18746671.61248
  -7290822.36306  22195924.70206  -5662030.49147  22195926.19047
    -64576.77306  21029706.79606    -50785.27946  21029707.89846
 -15991295.35907  20670692.17907 -12443564.78848  20670690.10848
   -924834.24607  20431972.39007   -721843.32248  20431971.32748
 04  2 13  3 40 14.9950000  0  7  7  8 11 20 27 28 31
         0.00000  22853325.15501  -1181222.43855  22853329.78445
  -5560087.08206  20237864.89006  -4321812.09847  20237864.99947
  -7927497.32807  18741747.66307  -6166210.26848  18741744.85548
  -7373669.77306  22180159.23306  -5726586.90946  22180160.45246
    -56073.89506  21031325.38206    -44159.68246  21031326.13646
 -16065549.85507  20656562.06207 -12501425.41148  20656560.03848
   -925091.00007  20431923.66307   -722043.41348  20431922.87448
 04  2 13  3 40 29.9950000  0  7  7  8 11 20 27 28 31
  -1609523.52702  22840255.56202  -1234746.33645  22840258.62845
  -5571584.18406  20235677.13206  -4330770.91547  20235676.48047
  -7953270.14807  18736843.37407  -6186292.99448  18736840.94048
  -7456494.08206  22164398.40506  -5791125.32046  22164399.76946
    -47511.16406  21032954.30406    -37487.53946  21032954.96446
 -16139749.13307  20642442.42107 -12559243.01848  20642440.60848
   -925312.16407  20431881.00707   -722215.77248  20431880.69048
 04  2 13  3 40 44.9950000  0  7  7  8 11 20 27 28 31
  -1678207.16403  22827186.16303  -1288265.95745  22827188.73745
  -5582945.12506  20233515.59306  -4339623.62347  20233515.04247
  -7978927.90607  18731960.89007  -6206286.06248  18731958.30048
  -7539294.57006  22148641.54606  -5855645.18946  22148643.78046
    -38888.73406  21034595.78806    -30768.80546  21034595.41746
 -16213892.63307  20628333.39807 -12617017.16948  20628331.77348
   -925497.65207  20431845.93707   -722360.32348  20431845.17548
 04  2 13  3 40 59.9950000  0  7  7  8 11 20 27 28 31
  -1746884.71904  22814118.53004  -1341780.91445  22814119.55045
  -5594169.96907  20231379.34307  -4348370.28947  20231379.56947
  -8004470.25407  18727100.53807  -6226189.20848  18727097.85848
  -7622070.37506  22132890.35106  -5920145.74646  22132892.24546
    -30206.41806  21036247.53806    -24003.44646  21036246.03046
 -16287979.45307  20614235.08507 -12674747.15448  20614233.61248
   -925647.04307  20431817.98307   -722476.73748  20431816.62848
 04  2 13  3 41 14.9950000  0  7  7  8 11 20 27 28 31
  -1815556.64105  22801050.46005  -1395291.41845  22801050.89845
  -5605259.22707  20229269.51507  -4357011.30547  20229269.21047
  -8029897.69907  18722261.58507  -6246002.80548  18722258.99548
  -7704821.48406  22117143.22606  -5984627.13446  22117145.43746
    -21465.00006  21037911.39006    -17191.98746  21037909.77646
 -16362009.66007  20600147.46007 -12732433.02148  20600146.14048
   -925760.61307  20431795.87407   -722565.25047  20431795.13247
 04  2 13  3 41 29.9950000  0  7  7  8 11 20 27 28 31
  -1884222.18805  22787983.03805  -1448797.01245  22787984.28445
  -5616212.30106  20227185.17906  -4365546.18247  20227184.43347
  -8055209.59407  18717445.22607  -6265726.38248  18717442.22648
  -7787546.60906  22101400.64806  -6049088.23446  22101402.62046
    -12664.05906  21039585.19406    -10334.18946  21039584.77346
 -16435982.32807  20586071.07707 -12790074.05148  20586069.31248
   -925837.71907  20431781.33507   -722625.35547  20431780.48047
 04  2 13  3 41 44.9950000  0  7  7  8 11 20 27 28 31
  -1952882.73405  22774917.35805  -1502298.72745  22774917.79245
  -5627030.94106  20225126.45206  -4373976.33147  20225126.00747
  -8080407.48807  18712650.09307  -6285361.11748  18712647.51148
  -7870246.77706  22085663.43706  -6113529.90346  22085665.13246
     -3805.30906  21041271.25706     -3431.31346  21041271.10846
 -16509898.35507  20572005.28007 -12847670.95648  20572003.33948
   -925879.75807  20431772.81907   -722658.12948  20431771.98748
 04  2 13  3 41 59.9950000  0  7  7  8 11 20 27 28 31
  -2021536.46905  22761853.70205  -1555795.12545  22761854.62445
  -5637713.53906  20223093.32706  -4382300.46348  20223093.27648
  -8105489.77707  18707877.13207  -6304905.75948  18707874.56948
  -7952919.90606  22069931.57706  -6177950.47747  22069932.66347
      5112.59006  21042968.49906      3517.66046  21042968.32746
 -16583755.65207  20557950.85807 -12905222.08348  20557949.07348
   -925885.00407  20431772.10107   -722662.23648  20431771.28448
 04  2 13  3 42 14.9950000  0  7  7  8 11 20 27 28 31
  -2090184.89505  22748790.27305  -1609287.37146  22748791.88246
  -5648261.88307  20221085.98307  -4390519.97547  20221086.14047
  -8130458.11707  18703125.80407  -6324361.62248  18703123.33948
  -8035566.94106  22054203.98306  -6242350.70546  22054205.68346
     14087.87906  21044676.75706     10511.32446  21044676.47246
 -16657555.52707  20543907.27307 -12962728.47448  20543905.98048
   -925855.00807  20431777.76507   -722638.88348  20431777.22648
 04  2 13  3 42 29.9950000  0  7  7  8 11 20 27 28 31
  -2158827.32805  22735728.14805  -1662774.94846  22735730.22246
  -5658675.72306  20219104.39806  -4398634.69047  20219103.96847
  -8155311.97307  18698396.24907  -6343728.26348  18698393.84348
  -8118187.05906  22038482.05406  -6306729.95746  22038483.53046
     23120.54706  21046395.18706     17549.69046  21046396.33946
 -16731297.03907  20529874.47607 -13020189.36948  20529873.73748
   -925789.27007  20431790.56907   -722587.67648  20431789.51548
 04  2 13  3 42 44.9950000  0  7  7  8 11 20 27 28 31
  -2227464.12505  22722666.39005  -1716258.13446  22722668.56946
  -5668955.50406  20217148.35806  -4406644.94148  20217147.91348
  -8180051.91807  18693688.33507  -6363006.15348  18693686.11648
  -8200780.00006  22022764.81906  -6371088.06247  22022767.05047
     32210.20306  21048124.92906     24632.48246  21048126.78846
 -16804980.08207  20515852.92107 -13077604.72548  20515852.22248
   -925688.00407  20431809.75707   -722508.78748  20431809.03448
 04  2 13  3 42 59.9950000  0  7  7  8 11 20 27 28 31
  -2296095.00805  22709606.64005  -1769736.69146  22709608.77346
  -5679101.23006  20215217.76506  -4414550.74547  20215217.16347
  -8204677.68806  18689002.24906  -6382195.07048  18689000.10148
  -8283345.16406  22007053.72606  -6435424.46147  22007055.00347
     41356.64106  21049865.74106     31759.50146  21049867.66746
 -16878604.12507  20501842.39807 -13134974.09948  20501842.37048
   -925551.05507  20431835.68707   -722402.07548  20431834.59748
 04  2 13  3 43 14.9950000  0  7  7  8 11 20 27 28 31
  -2364719.72704  22696547.22604  -1823210.49446  22696549.89046
  -5689113.02706  20213312.90506  -4422352.16947  20213311.89447
  -8229189.35907  18684337.96807  -6401295.07648  18684335.65948
  -8365881.95306  21991347.39006  -6499738.81246  21991349.38246
     50559.64106  21051617.38206     38930.63346  21051618.67146
 -16952168.60907  20487843.29607 -13192297.05148  20487843.04248
   -925378.22707  20431868.81207   -722267.42748  20431867.95248
 04  2 13  3 43 29.9950000  0  7  7  8 11 20 27 28 31
  -2433338.55104  22683489.85104  -1876679.67146  22683492.04646
  -5698991.32006  20211433.28006  -4430049.57747  20211432.44847
  -8253587.28107  18679695.50707  -6420306.45248  18679692.81248
  -8448390.18406  21975646.28006  -6564030.84347  21975648.98347
     59818.53106  21053379.06206     46145.29247  21053380.53847
 -17025673.55507  20473855.91307 -13249573.62848  20473855.15948
   -925169.87907  20431907.94407   -722105.09348  20431907.79248
 04  2 13  3 43 44.9950000  0  7  7  8 11 20 27 28 31
  -2501951.09405  22670433.49105  -1930144.00146  22670436.00346
  -5708736.23806  20209578.27306  -4437643.04747  20209578.31247
  -8277871.24207  18675073.72607  -6439229.01948  18675071.74148
  -8530869.10906  21959950.38206  -6628300.04147  21959953.17547
     69133.35506  21055151.41306     53403.48447  21055153.21847
 -17099118.31607  20459879.85807 -13306803.29548  20459878.70648
   -924925.77007  20431954.62407   -721914.90048  20431954.16748
 04  2 13  3 43 59.9950000  0  7  7  8 11 20 27 28 31
  -2570557.97304  22657376.93704  -1983603.88946  22657380.40146
  -5718348.47306  20207749.63206  -4445133.14248  20207749.45248
  -8302041.81607  18670474.64007  -6458063.23548  18670472.22648
  -8613318.70706  21944261.30406  -6692546.39247  21944262.96447
     78503.35506  21056935.02306     60704.74146  21056935.89446
 -17172502.92607  20445915.09307 -13363986.10848  20445913.85848
   -924646.26207  20432008.07707   -721697.10548  20432007.02348
 04  2 13  3 44 14.9950000  0  7  7  8 11 20 27 28 31
  -2639159.04303  22644323.38203  -2037059.16046  22644325.72646
  -5727828.31307  20205945.06207  -4452520.05547  20205946.06247
  -8326099.22707  18665896.85107  -6476809.25848  18665893.90948
  -8695738.82006  21928576.82706  -6756769.75046  21928578.73046
     87927.96906  21058728.83506     68048.54746  21058729.66746
 -17245827.26607  20431962.03007 -13421121.95648  20431960.83948
   -924331.58207  20432067.92107   -721451.91848  20432066.80048
 04  2 13  3 44 29.9950000  0  7  7  8 11 20 27 28 31
  -2707754.31303  22631270.26503  -2090510.00546  22631272.87846
  -5737175.91406  20204166.81906  -4459803.93347  20204167.31947
  -8350043.54307  18661339.95207  -6495467.17648  18661337.56248
  -8778128.87106  21912898.09306  -6820969.68346  21912900.66346
     97406.88306  21060532.39006     75434.63346  21060533.17946
 -17319090.74207  20418020.78807 -13478210.36648  20418019.24148
   -923981.55507  20432134.71807   -721179.18348  20432133.60148
 04  2 13  3 44 44.9950000  0  7  7  8 11 20 27 28 31
  -2776343.37504  22618218.27304  -2143955.97146  22618219.94846
  -5746391.13306  20202413.53006  -4466984.64248  20202413.68348
  -8373874.50007  18656805.07707  -6514036.76248  18656802.53048
  -8860488.07806  21897225.20206  -6885145.56647  21897228.37847
    106940.21506  21062346.53806     82863.16146  21062347.21846
 -17392292.79707  20404090.74107 -13535250.91248  20404089.16348
   -923595.91807  20432207.70207   -720878.70648  20432207.32748
 04  2 13  3 44 59.9950000  0  7  7  8 11 20 27 28 31
  -2844925.51602  22605166.48302  -2197396.51946  22605168.16746
  -5755473.65206  20200684.70206  -4474061.96147  20200684.89447
  -8397591.61307  18652292.33507  -6532517.61948  18652289.37048
  -8942815.26206  21881559.43706  -6949296.49747  21881561.62047
    116528.27005  21064170.36605     90334.29546  21064171.96046
 -17465432.33207  20390172.98307 -13592242.73148  20390171.26548
   -923173.98407  20432288.03807   -720549.94648  20432287.49548
 04  2 13  3 45 14.9950000  0  7  7  8 11 20 27 28 31
  -2913501.05102  22592116.78002  -2250831.95246  22592118.99946
  -5764424.15207  20198981.62407  -4481036.39647  20198981.26947
  -8421195.66007  18647800.41307  -6550910.39848  18647797.81248
  -9025110.48006  21865899.23306  -7013422.50747  21865902.11647
    126170.16405  21066004.91305     97847.41046  21066007.18746
 -17538509.55507  20376266.63207 -13649186.00048  20376264.53048
   -922716.27307  20432375.16307   -720193.29048  20432374.82348
 04  2 13  3 45 29.9950000  0  7  7  8 11 20 27 28 31
  -2982071.85902  22579067.89802  -2304263.65246  22579069.97246
  -5773244.64806  20197303.07706  -4487909.51847  20197302.15547
  -8444688.31607  18643330.06207  -6569216.38148  18643327.05048
  -9107375.07006  21850244.82706  -7077524.68147  21850247.85847
    135863.83205  21067849.76505    105400.81846  21067852.33146
 -17611525.80107  20362372.60807 -13706081.76848  20362369.45648
   -922224.59407  20432468.92107   -719810.19048  20432468.94048
 04  2 13  3 45 44.9950000  0  7  7  8 11 20 27 28 31
  -3050636.52303  22566021.21003  -2357690.70446  22566023.00346
  -5781934.13706  20195649.28806  -4494680.57948  20195648.96448
  -8468068.46507  18638880.92907  -6587434.69148  18638878.54648
  -9189607.35506  21834596.70206  -7141601.68147  21834597.98347
    145610.21904  21069704.78004    112995.35946  21069706.95646
 -17684479.49207  20348489.85807 -13762928.80948  20348487.10548
   -921697.66007  20432569.14007   -719399.62248  20432568.92148
 04  2 13  3 45 59.9950000  0  7  7  8 11 20 27 28 31
  -3119195.21502  22552973.34302  -2411112.93546  22552977.49146
  -5790493.14507  20194020.54607  -4501349.94347  20194020.48047
  -8491336.35207  18634453.09307  -6605565.50848  18634450.65948
  -9271807.04306  21818954.31206  -7205653.28047  21818956.03847
    155408.77004  21071569.43704    120630.55546  21071571.56246
 -17757370.43807  20334618.99107 -13819726.91948  20334616.45648
   -921135.61707  20432676.24107   -718961.67448  20432675.88248
 04  2 13  3 46 14.9950000  0  7  7  8 11 20 27 28 31
  -3187747.69503  22539929.89003  -2464530.40246  22539932.85146
  -5798921.57006  20192416.51506  -4507917.57747  20192416.53447
  -8514492.02007  18630046.67907  -6623608.87948  18630044.31548
  -9353973.48806  21803317.99106  -7269678.94146  21803320.15146
    165259.39105  21073444.47605    128306.29346  21073445.87446
 -17830198.02307  20320760.03807 -13876475.67348  20320758.39848
   -920538.19507  20432790.17907   -718496.17648  20432789.69448
 04  2 13  3 46 29.9950000  0  7  7  8 11 20 27 28 31
  -3256293.95703  22526885.64003  -2517943.08846  22526889.06246
  -5807219.69506  20190837.49106  -4514383.69047  20190837.62047
  -8537535.56607  18625661.68707  -6641564.90448  18625659.11248
  -9436106.39806  21787688.10806  -7333678.47647  21787690.49147
    175161.69104  21075327.48304    136022.30346  21075329.95246
 -17902962.03107  20306913.64807 -13933174.87448  20306912.08148
   -919905.61307  20432910.53007   -718003.26648  20432909.87048
 04  2 13  3 46 44.9950000  0  7  7  8 11 20 27 28 31
  -3324834.94903  22513843.02303  -2571351.57046  22513846.54646
  -5815388.82806  20189283.10806  -4520749.27247  20189283.10147
  -8560468.07807  18621297.65507  -6659434.40448  18621295.28048
  -9518206.19506  21772065.49906  -7397652.22347  21772066.51947
    185114.46102  21077220.47602    143777.62046  21077224.71046
 -17975663.10207  20293078.94407 -13989825.05048  20293077.47648
   -919238.64807  20433037.76507   -717483.58848  20433036.51148
 04  2 13  3 46 59.9950000  0  7  7  8 11 20 27 28 31
  -3393369.32804  22500800.84304  -2624754.94346  22500804.59346
  -5823427.97706  20187753.21806  -4527013.55847  20187753.48347
  -8583288.42207  18616955.02307  -6677216.49448  18616952.75348
  -9600271.23806  21756448.35806  -7461598.88147  21756450.21847
    195118.39502  21079124.60802    151572.82946  21079128.57746
 -18048299.57407  20279256.61607 -14046424.87848  20279255.17948
   -918536.30107  20433171.49907   -716936.32548  20433170.30048
 04  2 13  3 47 14.9950000  0  7  7  8 11 20 27 28 31
  -3461897.38305  22487761.64805  -2678153.35746  22487763.98046
  -5831337.66806  20186248.26506  -4533176.98747  20186248.64447
  -8605997.09007  18612634.24907  -6694911.56348  18612630.99548
  -9682301.37105  21740838.75705  -7525518.31446  21740839.50346
    205173.00004  21081039.37404    159407.52946  21081042.26946
 -18120871.35507  20265446.83507 -14102974.29948  20265445.49948
   -917798.67607  20433311.64007   -716361.56847  20433310.27647
 04  2 13  3 47 29.9950000  0  7  7  8 11 20 27 28 31
  -3530419.75004  22474721.49904  -2731547.32446  22474723.98746
  -5839118.77006  20184767.64006  -4539240.20647  20184768.02647
  -8628594.80907  18608333.60807  -6712520.18448  18608330.93348
  -9764296.85505  21725234.85805  -7589410.75447  21725236.61247
    215277.06605  21082961.39805    167280.73746  21082964.66346
 -18193378.87507  20251648.81207 -14159473.64748  20251647.83548
   -917026.58607  20433458.27307   -715759.96848  20433457.24948
 04  2 13  3 47 44.9950000  0  7  7  8 11 20 27 28 31
  -3598934.98805  22461683.81905  -2784935.84746  22461685.74946
  -5846770.41406  20183311.55406  -4545202.54747  20183312.46047
  -8651080.31607  18604054.62407  -6730041.36548  18604052.29648
  -9846255.71105  21709639.32705  -7653274.67747  21709639.81247
    225431.82005  21084894.44405    175193.43146  21084897.10546
 -18265820.32407  20237864.04607 -14215921.53748  20237862.67148
   -916218.60507  20433612.17107   -715130.40648  20433610.83948
 04  2 13  3 47 59.9950000  0  7  7  8 11 20 27 28 31
  -3667445.21505  22448646.20205  -2838320.38646  22448647.75746
  -5854294.77706  20181879.47606  -4551065.72047  20181880.26147
  -8673455.93807  18599797.01507  -6747476.91948  18599794.23048
  -9928179.86705  21694048.89005  -7717111.55546  21694051.06546
    235634.61705  21086836.91305    183143.57946  21086838.55846
 -18338197.57807  20224091.18707 -14272319.38948  20224089.61648
   -915376.87507  20433772.64807   -714474.51648  20433770.83548
 04  2 13  3 48 14.9950000  0  7  7  8 11 20 27 28 31
  -3735949.55505  22435610.07705  -2891700.38946  22435611.91746
  -5861691.42206  20180472.14806  -4556829.33447  20180472.34347
  -8695721.09407  18595559.59307  -6764826.38148  18595557.12448
 -10010068.05505  21678466.65505  -7780920.40846  21678468.04246
    245886.05906  21088787.39006    191131.64246  21088788.80846
 -18410509.47707  20210330.32707 -14328666.30848  20210329.10848
   -914500.63707  20433938.80407   -713791.73947  20433938.12847
 04  2 13  3 48 29.9950000  0  7  7  8 11 20 27 28 31
  -3804447.84405  22422576.24905  -2945075.59146  22422576.75746
  -5868960.41006  20179089.50706  -4562493.52947  20179089.24147
  -8717875.53107  18591344.04607  -6782089.58648  18591341.28448
 -10091919.57405  21662890.55405  -7844700.69546  21662892.62846
    256185.94106  21090747.83506    199157.45347  21090748.96847
 -18482755.35507  20196582.73307 -14384961.79848  20196581.00348
   -913589.66807  20434112.64007   -713081.92047  20434111.35547
 04  2 13  3 48 44.9950000  0  7  7  8 11 20 27 28 31
  -3872939.65605  22409542.67905  -2998445.89946  22409543.10846
  -5876101.49206  20177730.26506  -4568058.02147  20177730.25747
  -8739919.12907  18587149.22607  -6799266.42448  18587146.55848
 -10173733.72305  21647321.71005  -7908451.86847  21647323.70647
    266534.34006  21092716.74106    207221.04847  21092718.23747
 -18554934.55507  20182847.61607 -14441205.32648  20182845.96448
   -912643.59807  20434292.33507   -712344.72448  20434291.78848
 04  2 13  3 48 59.9940000  0  7  7  8 11 20 27 28 31
  -3941421.09406  22396511.20506  -3051807.97446  22396511.22146
  -5883115.45706  20176395.54906  -4573523.48347  20176395.23647
  -8761851.28507  18582975.73607  -6816356.42648  18582972.63148
 -10255505.18805  21631760.61905  -7972169.74047  21631762.65847
    276929.40206  21094694.85406    215321.01247  21094696.54947
 -18627042.65207  20169125.97107 -14497393.44148  20169124.69048
   -911663.30107  20434478.83007   -711580.87548  20434478.54548
 04  2 13  3 49 14.9940000  0  7  7  8 11 20 27 28 31
  -4009901.34806  22383479.15806  -3105169.14046  22383479.79546
  -5890003.61306  20175084.48606  -4578890.89847  20175083.97547
  -8783675.24607  18578822.62707  -6833362.11148  18578820.29948
 -10337244.66805  21616206.44705  -8035862.71946  21616208.23246
    287371.95306  21096682.55706    223457.96247  21096683.47147
 -18699089.17207  20155415.91607 -14553533.58048  20155414.52948
   -910648.81607  20434671.92407   -710790.39148  20434671.35748
 04  2 13  3 49 29.9940000  0  7  7  8 11 20 27 28 31
  -4078375.07805  22370449.02505  -3158525.33945  22370448.51445
  -5896764.77306  20173798.43206  -4584159.39247  20173797.99047
  -8805388.84407  18574690.92407  -6850281.79848  18574688.19048
 -10418945.45305  21600658.90005  -8099525.55946  21600660.76446
    297861.85206  21098678.59606    231631.82647  21098680.17447
 -18771067.97307  20141718.63507 -14609620.95548  20141717.24848
   -909599.40207  20434871.22907   -709972.70048  20434871.31848
 04  2 13  3 49 44.9940000  0  7  7  8 11 20 27 28 31
  -4146842.76606  22357420.05706  -3211876.74946  22357419.44046
  -5903400.08606  20172534.90806  -4589329.79747  20172535.16647
  -8826992.81607  18570579.82207  -6867116.07048  18570576.82648
 -10500607.70705  21585119.34605  -8163158.37147  21585120.64747
    308398.18006  21100683.34606    239841.88847  21100685.50647
 -18842979.39807  20128034.08807 -14665655.79748  20128032.78748
   -908515.56307  20435077.80707   -709128.16048  20435077.58848
 04  2 13  3 49 59.9940000  0  7  7  8 11 20 27 28 31
  -4215303.70705  22344392.40005  -3265222.91646  22344392.49446
  -5909908.88306  20171296.64306  -4594401.64547  20171296.29947
  -8848486.61307  18566489.65807  -6883864.47448  18566486.77248
 -10582230.30505  21569586.94005  -8226760.25746  21569587.94046
    318981.31606  21102697.80706    248088.39447  21102699.29547
 -18914822.38307  20114362.69707 -14721637.34048  20114361.39748
   -907396.67607  20435290.51807   -708256.32248  20435290.52948
 04  2 13  3 50 14.9940000  0  7  7  8 11 20 27 28 31
  -4283758.34405  22331365.69705  -3318564.20146  22331365.93646
  -5916291.88706  20170082.52506  -4599375.41347  20170081.86547
  -8869870.71107  18562420.24407  -6900527.41048  18562417.68248
 -10663813.13705  21554061.86905  -8290331.19246  21554062.82646
    329610.31306  21104720.00206    256370.67647  21104722.01047
 -18986597.02707  20100704.43207 -14777565.61048  20100703.24448
   -906243.21907  20435510.54907   -707357.54247  20435509.56547
 04  2 13  3 50 29.9940000  0  7  7  8 11 20 27 28 31
  -4352207.03105  22318340.45505  -3371900.79746  22318340.99846
  -5922550.07406  20168891.42406  -4604251.95547  20168890.91247
  -8891145.79307  18558372.08007  -6917105.41148  18558369.52248
 -10745356.37905  21538544.92405  -8353871.26246  21538545.86946
    340284.48806  21106751.34606    264688.11947  21106753.68247
 -19058303.51207  20087059.30707 -14833440.78048  20087057.78748
   -905055.68807  20435736.34607   -706432.20648  20435735.49448
 04  2 13  3 50 44.9940000  0  7  7  8 11 20 27 28 31
  -4420649.57405  22305316.72105  -3425232.61246  22305317.64746
  -5928683.35906  20167723.90006  -4609031.17347  20167724.65447
  -8912311.85507  18554343.97107  -6933598.44448  18554341.49448
 -10826859.31305  21523034.79105  -8417379.93346  21523036.29546
    351003.67606  21108791.42406    273040.64447  21108793.32247
 -19129941.19907  20073426.90807 -14889262.33648  20073425.87748
   -903833.72707  20435969.44007   -705480.05748  20435968.31548
 04  2 13  3 50 59.9940000  0  7  7  8 11 20 27 28 31
  -4489085.56605  22292293.97905  -3478559.37646  22292294.39746
  -5934691.70306  20166580.79106  -4613713.02347  20166581.13947
  -8933368.79307  18550336.98607  -6950006.44048  18550334.54948
 -10908321.29305  21507533.05705  -8480856.65746  21507534.30346
    361767.73806  21110840.19706    281428.15847  21110841.29147
 -19201509.35507  20059807.93207 -14945029.70548  20059806.88148
   -902577.19507  20436208.52507   -704500.95247  20436207.64747
 04  2 13  3 51 14.9940000  0  7  7  8 11 20 27 28 31
  -4557516.05905  22279272.09605  -3531881.76846  22279273.13546
  -5940576.43806  20165461.38506  -4618298.56847  20165461.29547
  -8954317.60207  18546350.31507  -6966330.18648  18546348.15048
 -10989742.89505  21492039.15005  -8544301.94746  21492039.70946
    372575.52706  21112896.26806    289849.69846  21112898.65846
 -19273008.82407  20046201.65807 -15000743.55848  20046200.88548
   -901287.05107  20436454.04107   -703495.66347  20436452.67847
 04  2 13  3 51 29.9940000  0  7  7  8 11 20 27 28 31
  -4625939.91005  22266250.45505  -3585198.97246  22266252.84646
  -5946336.85506  20164365.34606  -4622787.25447  20164364.85047
  -8975157.51207  18542384.97107  -6982569.09448  18542382.30348
 -11071122.55505  21476552.29105  -8607714.58246  21476552.84646
    383427.56306  21114961.19706    298305.74246  21114963.26446
 -19344438.10507  20032609.75207 -15056402.72248  20032608.01848
   -899962.38707  20436705.77507   -702463.46848  20436704.65848
 04  2 13  3 51 44.9940000  0  7  7  8 11 20 27 28 31
  -4694357.68005  22253231.86105  -3638511.49046  22253232.92446
  -5951973.66006  20163292.86106  -4627179.60447  20163293.12347
  -8995889.07807  18538439.52507  -6998723.55048  18538437.22148
 -11152460.44905  21461074.76005  -8671094.63346  21461076.08846
    394322.94506  21117035.62706    306795.57546  21117036.59246
 -19415797.47307  20019030.60407 -15112007.39548  20019028.62748
   -898603.60507  20436964.17407   -701404.69047  20436963.09647
 04  2 13  3 51 59.9940000  0  7  7  8 11 20 27 28 31
  -4762768.98405  22240213.58805  -3691818.94246  22240214.58446
  -5957486.96106  20162243.40006  -4631475.70747  20162244.27547
  -9016512.19907  18534515.52507  -7014793.52148  18534512.55748
 -11233755.79306  21445604.41606  -8734441.52446  21445605.77546
    405261.72305  21119116.22905    315319.17246  21119117.95946
 -19487086.15207  20005464.54107 -15167557.01448  20005462.76048
   -897210.47707  20437229.79907   -700319.17547  20437228.56847
 04  2 13  3 52 14.9940000  0  7  7  8 11 20 27 28 31
  -4831174.34005  22227195.01805  -3745121.85146  22227197.18646
  -5962877.55906  20161217.88506  -4635676.21247  20161218.22147
  -9037027.63707  18530611.37707  -7030779.57948  18530608.85748
 -11315008.58605  21430143.29905  -8797755.30046  21430144.89346
    416242.87105  21121206.16605    323875.84646  21121207.02946
 -19558304.44107  19991912.29907 -15223051.77248  19991910.17848
   -895783.57807  20437500.75207   -699207.31147  20437500.36547
 04  2 13  3 52 29.9940000  0  7  7  8 11 20 27 28 31
  -4899573.26204  22214179.71304  -3798419.68446  22214181.61546
  -5968145.21106  20160215.68206  -4639780.90247  20160215.57247
  -9057435.12107  18526728.40807  -7046681.52748  18526725.53748
 -11396218.10906  21414688.96306  -8861035.35847  21414691.64747
    427266.59405  21123303.64305    332465.64946  21123305.09246
 -19629451.52707  19978373.26807 -15278491.05048  19978371.40848
   -894322.48407  20437778.65807   -698068.82747  20437778.16247
 04  2 13  3 52 44.9940000  0  7  7  8 11 20 27 28 31
  -4967965.55905  22201164.81505  -3851712.34546  22201166.68246
  -5973290.31606  20159236.54106  -4643790.09547  20159236.05747
  -9077734.77007  18522865.04907  -7062499.44048  18522862.49448
 -11477383.78106  21399243.87706  -8924281.21847  21399245.90847
    438332.63705  21125409.48605    341088.47945  21125411.77945
 -19700526.89107  19964848.33807 -15333874.43148  19964846.92048
   -892826.94907  20438063.50207   -696903.50247  20438062.77247
 04  2 13  3 52 59.9940000  0  7  7  8 11 20 27 28 31
  -5036351.73405  22188151.68205  -3905000.18746  22188152.74446
  -5978313.50806  20158280.40806  -4647704.28347  20158280.01447
  -9097926.97707  18519023.04107  -7078233.61448  18519020.56848
 -11558505.72306  21383807.08006  -8987493.04747  21383809.65047
    449440.12505  21127522.93205    349743.52045  21127526.92045
 -19771530.84407  19951336.65807 -15389202.16748  19951335.46348
   -891297.60207  20438354.47907   -695711.81347  20438353.92047
 04  2 13  3 53 14.9940000  0  7  7  8 11 20 27 28 31
  -5104731.23406  22175140.14306  -3958282.89846  22175140.93246
  -5983214.60506  20157347.76006  -4651523.36447  20157347.40847
  -9118011.38307  18515201.11907  -7093883.81548  18515198.52548
 -11639582.91006  21368378.41606  -9050669.97247  21368380.54547
    460589.15204  21129644.94704    358430.94145  21129649.32645
 -19842462.41007  19937838.92407 -15444473.50948  19937837.90048
   -889734.00807  20438652.20507   -694493.46447  20438651.60047
 04  2 13  3 53 29.9940000  0  7  7  8 11 20 27 28 31
  -5173105.10205  22162129.55705  -4011561.26546  22162129.76846
  -5987995.01606  20156438.11106  -4655248.38347  20156437.69347
  -9137989.16007  18511399.17407  -7109450.92148  18511396.82648
 -11720616.10906  21352958.37706  -9113812.64647  21352960.45947
    471778.27304  21131774.56504    367149.69945  21131778.47545
 -19913322.39807  19924354.60407 -15499689.06948  19924353.49448
   -888137.24207  20438956.08807   -693249.27348  20438955.65048
 04  2 13  3 53 44.9940000  0  7  7  8 11 20 27 28 31
  -5241472.57006  22149119.40006  -4064834.60946  22149119.76446
  -5992654.27706  20155551.94006  -4658879.03247  20155550.59647
  -9157860.02307  18507617.87707  -7124934.71448  18507615.47548
 -11801604.02706  21337547.22906  -9176919.99947  21337548.65847
    483007.96503  21133912.25203    375899.96545  21133915.52945
 -19984109.62507  19910884.35407 -15554847.93048  19910883.18248
   -886506.49607  20439266.19007   -691978.58147  20439265.76047
 04  2 13  3 53 59.9940000  0  7  7  8 11 20 27 28 31
  -5309833.90606  22136110.19006  -4118103.11046  22136111.05746
  -5997192.94106  20154687.99406  -4662415.67547  20154686.70147
  -9177624.36707  18503856.66607  -7140335.50148  18503854.45148
 -11882546.66406  21322144.19706  -9239992.10947  21322145.26447
    494277.43803  21136055.69003    384681.27045  21136059.08445
 -20054824.14507  19897428.08807 -15609950.14348  19897426.76448
   -884842.14807  20439582.86907   -690681.70447  20439582.19347
 04  2 13  3 54 14.9940000  0  7  7  8 11 20 27 28 31
  -5378188.87505  22123102.47105  -4171366.70446  22123103.06546
  -6001611.16006  20153847.65006  -4665858.47447  20153846.22147
  -9197282.13307  18500115.90807  -7155653.25748  18500113.31148
 -11963443.32406  21306750.06506  -9303028.36847  21306751.02247
    505586.59802  21138208.59602    393493.55945  21138211.40845
 -20125465.41407  19883985.29107 -15664995.26348  19883984.18648
   -883143.98007  20439906.33007   -689358.49847  20439905.56547
 04  2 13  3 54 29.9940000  0  7  7  8 11 20 27 28 31
  -5446537.47304  22110095.69704  -4224625.31546  22110096.81846
  -6005909.40606  20153029.29906  -4669207.79047  20153028.95947
  -9216833.50007  18496395.58807  -7170888.08748  18496393.02248
 -12044293.61306  21291364.65806  -9366028.45047  21291365.24447
    516935.16001  21140367.26001         0.00000         0.00000
 -20196033.08607  19870556.89307 -15719983.07048  19870555.53748
   -881412.09007  20440235.94707   -688008.99447  20440234.97147
 04  2 13  3 54 44.9940000  0  7  7  8 11 20 27 28 31
  -5514879.07805  22097090.94705  -4277878.46246  22097092.10746
  -6010087.18406  20152234.43206  -4672463.23847  20152233.85747
  -9236277.99207  18492695.59607  -7186039.65048  18492692.85448
 -12125096.39106  21275987.91606  -9428991.54747  21275988.57647
    528323.23801  21142533.86901         0.00000         0.00000
 -20266526.16407  19857142.23607 -15774912.72948  19857141.22948
   -879645.84007  20440572.48607   -686632.72447  20440571.46747
 04  2 13  3 54 59.9940000  0  7  7  8 11 20 27 28 31
  -5583215.34404  22084086.76804  -4331127.46946  22084088.24046
  -6014146.53906  20151461.84606  -4675626.39347  20151461.46347
  -9255617.56307  18489015.61907  -7201109.44948  18489013.04948
 -12205853.07806  21260620.36106  -9491918.74147  21260620.91647
    539748.88301  21144708.61101         0.00000         0.00000
 -20336946.04707  19843741.65807 -15829785.36348  19843740.71348
   -877846.99207  20440914.66607   -685231.02747  20440913.95147
 04  2 13  3 55 14.9940000  0  7  7  8 11 20 27 28 31
  -5651544.51204  22071083.21304  -4384370.88946  22071085.92846
  -6018085.98806  20150712.03306  -4678696.13247  20150711.73647
  -9274850.40607  18485355.47107  -7216096.08048  18485352.79548
 -12286561.39106  21245262.41606  -9554808.23847  21245261.92447
    551213.43401  21146890.39301         0.00000         0.00000
 -20407290.56307  19830355.47907 -15884599.24548  19830354.37748
   -876013.68407  20441263.30707   -683802.51747  20441262.51447
 04  2 13  3 55 29.9940000  0  7  7  8 11 20 27 28 31
  -5719867.71105  22058081.07205  -4437609.73346  22058084.09646
  -6021907.33606  20149984.80706  -4681673.85147  20149984.17447
  -9293978.12107  18481715.95507  -7231000.81249  18481712.95149
 -12367222.19506  21229912.83806  -9617660.72047  21229912.89747
    562715.32001  21149077.71301         0.00000         0.00000
 -20477560.77707  19816983.21307 -15939355.24948  19816982.49448
   -874147.34407  20441618.70507   -682348.25247  20441617.54947
 04  2 13  3 55 44.9940000  0  7  7  8 11 20 27 28 31
  -5788184.71505  22045082.01005  -4490843.65146  22045084.41246
  -6025610.49606  20149280.28306  -4684559.46347  20149280.38147
  -9313000.53507  18478095.81507  -7245823.47348  18478093.40848
 -12447834.89506  21214572.48606  -9680475.68547  21214572.67047
    574254.23011  21151272.09601         0.00000         0.00000
 -20547756.11307  19803625.60407 -15994052.89748  19803624.38548
   -872247.74607  20441980.11907   -680868.06547  20441978.79147
 04  2 13  3 55 59.9940000  0  7  7  8 11 20 27 28 31
  -5856494.95705  22032082.70505  -4544072.38146  22032085.52946
  -6029195.18806  20148598.41606  -4687352.76547  20148598.43647
  -9331917.30907  18474495.85407  -7260563.81448  18474493.67848
 -12528398.45306  21199241.70506  -9743252.36547  21199242.23247
    585830.54701  21153477.97101         0.00000         0.00000
 -20617875.53907  19790282.02507 -16048691.40248  19790280.80748
   -870314.24607  20442348.01807   -679361.46547  20442346.97547
 04  2 13  3 56 14.9940000  0  7  7  8 11 20 27 28 31
  -5924799.09405  22019085.54105  -4597296.32146  22019087.38946
  -6032662.57806  20147938.29906  -4690054.66047  20147939.25247
  -9350729.38707  18470916.34607  -7275222.57648  18470913.85048
 -12608913.09407  21183920.73607  -9805990.94747  21183920.59647
    597443.19502  21155687.22902         0.00000         0.00000
 -20687919.55507  19776953.16607 -16103271.13948  19776952.18648
   -868347.66807  20442722.24407   -677829.11247  20442720.70147
 04  2 13  3 56 29.9940000  0  7  7  8 11 20 27 28 31
  -5993096.37905  22006088.37705  -4650514.95446  22006090.03346
  -6036012.03106  20147300.89306  -4692664.65947  20147301.89747
  -9369436.15607  18467355.76807  -7289799.29648  18467353.83848
 -12689377.74606  21168608.32206  -9868690.57847  21168608.67847
    609092.47304  21157905.60404         0.00000         0.00000
 -20757887.16407  19763639.18207 -16157791.36048  19763637.26448
   -866347.27007  20443102.78307   -676270.38947  20443101.27947
 04  2 13  3 56 44.9940000  0  7  7  8 11 20 27 28 31
  -6061387.44505  21993093.43205  -4703728.72546  21993094.82246
  -6039244.67206  20146686.47106  -4695183.62447  20146685.83047
  -9388038.50007  18463816.47107  -7304294.63748  18463813.85448
 -12769792.69906  21153306.28306  -9931351.45947  21153306.23247
    620777.36305  21160129.33005         0.00000         0.00000
 -20827778.50807  19750339.17407 -16212252.11948  19750337.91248
   -864313.68807  20443490.20507   -674685.81247  20443488.13547
 04  2 13  3 56 59.9940000  0  7  7  8 11 20 27 28 31
  -6129672.57005  21980098.36105  -4756937.88046  21980100.92846
  -6042361.18006  20146092.75206  -4697612.09647  20146092.66647
  -9406536.80907  18460296.47907  -7318708.91948  18460293.77948
 -12850157.81306  21138012.63506  -9993973.50247  21138013.27547
    632497.18005  21162360.38505    492385.20056  21162362.55746
 -20897593.63307  19737054.02507 -16266653.52248  19737052.07248
   -862247.29707  20443883.42407   -673075.68447  20443881.89747
 04  2 13  3 57 14.9940000  0  7  7  8 11 20 27 28 31
  -6197950.75005  21967105.69005  -4810141.60746  21967107.67446
  -6045360.89806  20145521.62706  -4699949.56647  20145521.85747
  -9424930.44907  18456796.47107  -7333041.63548  18456793.70148
 -12930471.71906  21122729.17406 -10056555.67247  21122730.02547
    644252.53905  21164596.81505    501545.12246  21164598.92046
 -20967331.26607  19723783.52507 -16320994.51048  19723781.10748
   -860147.19107  20444283.04107   -671439.27047  20444281.37747
 04  2 13  3 57 29.9940000  0  7  7  8 11 20 27 28 31
  -6266222.87906  21954114.72906  -4863340.63146  21954115.98646
  -6048245.08206  20144972.86106  -4702197.01847  20144973.54147
  -9443220.42607  18453315.97907  -7347293.57349  18453313.57249
 -13010734.90606  21107456.01006 -10119098.29147  21107456.61947
    656042.09005  21166840.18205    510731.69546  21166841.97146
 -21036991.91007  19710527.54107 -16375275.52748  19710525.14348
   -858014.31607  20444688.61107   -669777.31747  20444687.33047
 04  2 13  3 57 44.9940000  0  7  7  8 11 20 27 28 31
  -6334489.00806  21941123.72106  -4916534.96546  21941125.04146
  -6051013.96506  20144445.95506  -4704354.60547  20144447.01847
  -9461406.93807  18449855.11107  -7361464.87848  18449852.81548
 -13090946.91807  21092191.97107 -10181601.04547  21092191.60747
    667865.55105  21169089.89305    519944.65646  21169091.34646
 -21106575.38307  19697285.83007 -16429496.39148  19697283.85748
   -855848.63307  20445101.15007   -668089.79447  20445099.93647
 04  2 13  3 57 59.9940000  0  7  7  8 11 20 27 28 31
  -6402748.65606  21928134.29106  -4969724.24246  21928134.96346
  -6053667.71506  20143941.26806  -4706422.48447  20143942.04947
  -9479489.74607  18446413.97907  -7375555.37148  18446411.86548
 -13171106.94906  21076938.02506 -10244063.28547  21076937.97547
    679722.78105  21171346.20505    529184.00246  21171347.94046
 -21176080.89807  19684059.46307 -16483656.51048  19684057.78348
   -853649.92207  20445519.46307   -666376.55247  20445518.56547
 04  2 13  3 58 14.9940000  0  7  7  8 11 20 27 28 31
  -6471001.17206  21915146.31506  -5022907.97246  21915146.61546
  -6056205.89806  20143458.04906  -4708400.33547  20143459.04947
  -9497468.33207  18442992.66607  -7389564.66048  18442990.53348
 -13251213.95306  21061693.81506 -10306484.22447  21061693.90447
    691614.27004  21173608.79904    538449.96746  21173611.56846
 -21245507.46907  19670848.16607 -16537755.11648  19670846.15048
   -851417.45307  20445944.00207   -664637.00447  20445943.51847
 04  2 13  3 58 29.9940000  0  7  7  8 11 20 27 28 31
  -6539246.91005  21902159.19705  -5076086.43846  21902159.83046
  -6058629.07406  20142997.01006  -4710288.54747  20142997.86547
  -9515343.23007  18439591.28307  -7403493.16849  18439589.17449
 -13331267.88706  21046459.84606 -10368863.81547  21046460.09647
    703539.10904  21175877.53304    547741.96446  21175880.89746
 -21314855.15207  19657651.83007 -16591792.27448  19657649.73248
   -849151.59807  20446375.44007   -662871.43847  20446375.17847
 04  2 13  3 58 44.9940000  0  7  7  8 11 20 27 28 31
  -6607486.18405  21889173.99405  -5129259.85446  21889174.45546
  -6060938.15206  20142558.14306  -4712087.86947  20142558.15447
  -9533115.17607  18436209.50207  -7417341.43748  18436206.87348
 -13411268.81606  21031235.86906 -10431202.08547  21031236.75647
    715496.59805  21178152.87705    557059.40046  21178156.48246
 -21384124.02307  19644470.40807 -16645767.99348  19644468.79548
   -846852.86307  20446812.96307   -661080.22547  20446812.95147
 04  2 13  3 58 59.9940000  0  7  7  8 11 20 27 28 31
  -6675718.34804  21876189.99404  -5182427.74746  21876190.06846
  -6063132.69906  20142139.98606  -4713797.94347  20142140.47147
  -9550783.58207  18432847.15007  -7431109.03248  18432844.41648
 -13491215.57006  21016022.53306 -10493498.14347  21016023.06147
    727487.09805  21180435.73605    566402.55047  21180438.58047
 -21453312.98407  19631303.65007 -16699681.46348  19631301.97148
   -844520.49207  20447256.68207   -659262.79547  20447256.54147
 04  2 13  3 59 14.9940000  0  7  7  8 11 20 27 28 31
  -6743943.57004  21863206.67404  -5235590.20646  21863206.84246
  -6065213.39106  20141744.66606  -4715419.29347  20141745.36547
  -9568348.89507  18429504.54907  -7444796.30248  18429501.66648
 -13571108.00806  21000819.79106 -10555751.87047  21000820.43247
    739509.91405  21182723.89305    575770.86447  21182726.43247
 -21522422.11307  19618152.79107 -16753532.72448  19618151.82648
   -842154.82806  20447706.45506   -657419.44947  20447706.70947
 04  2 13  3 59 29.9940000  0  7  7  8 11 20 27 28 31
  -6812162.64805  21850224.86105  -5288747.90846  21850225.83846
  -6067181.33206  20141369.50206  -4716952.80847  20141370.92447
  -9585812.04307  18426181.16607  -7458403.95648  18426178.76848
 -13650946.46506  20985626.97106 -10617963.55947  20985627.42847
    751563.94105  21185016.98605    585163.53047  21185020.64747
 -21591451.83607  19605016.69007 -16807322.11448  19605015.49448
   -839756.60907  20448163.53307   -655550.74148  20448162.55348
 04  2 13  3 59 44.9940000  0  7  7  8 11 20 27 28 31
  -6880375.46505  21837243.76805  -5341900.66246  21837245.98646
  -6069036.60506  20141017.03306  -4718398.49247  20141018.04947
  -9603173.23007  18422877.86107  -7471932.15648  18422875.41248
 -13730730.41006  20970444.51006 -10680132.76347  20970445.00647
    763648.93406  21187317.15006    594580.32447  21187320.61547
 -21660401.60907  19591896.03307 -16861049.18848  19591894.88948
   -837325.81307  20448625.84607   -653656.64847  20448625.48247
 04  2 13  3 59 59.9940000  0  7  7  8 11 20 27 28 31
  -6948581.52705  21824264.34605  -5395048.18946  21824266.59646
  -6070779.38306  20140685.78306  -4719756.56747  20140685.44047
  -9620432.23407  18419593.09607  -7485380.72948  18419591.12748
 -13810459.18007  20955272.59607 -10742258.96547  20955272.56147
    775764.77706  21189622.04906    604021.09546  21189625.51446
 -21729270.84007  19578790.30707 -16914713.51648  19578789.48648
   -834862.17607  20449094.47907   -651736.94547  20449094.23647
 04  2 13  4  0 14.9940000  0  7  7  8 11 20 27 28 31
  -7016781.23806  21811287.27506  -5448190.78647  21811289.32247
  -6072410.16406  20140375.22106  -4721027.35047  20140374.58447
  -9637589.46907  18416328.45507  -7498750.02048  18416326.17048
 -13890132.54707  20940111.34607 -10804342.00047  20940111.49047
    787910.89106  21191934.07206    613485.52846  21191937.08046
 -21798059.39807  19565700.61107 -16968314.99148  19565698.97948
   -832365.94107  20449570.18207   -649791.87547  20449569.22947
 04  2 13  4  0 29.9940000  0  7  7  8 11 20 27 28 31
  -7084974.07006  21798310.27506  -5501328.04647  21798312.68647
  -6073928.98006  20140086.26006  -4722210.85547  20140086.07247
  -9654644.72307  18413082.96307  -7512039.82848  18413080.79948
 -13969749.77007  20924960.71307 -10866381.29647  20924960.85747
    800087.30905  21194250.84605    622973.50846  21194254.41246
 -21866766.52307  19552626.01007 -17021853.00248  19552624.69048
   -829836.69907  20450050.92407   -647821.06347  20450050.52947
 04  2 13  4  0 44.9940000  0  7  7  8 11 20 27 28 31
  -7153159.49206  21785335.22906  -5554459.47547  21785337.25247
  -6075335.56606  20139818.54906  -4723306.94847  20139818.17447
  -9671597.75007  18409856.97907  -7525249.97548  18409854.39748
 -14049309.80107  20909820.58807 -10928376.04247  20909820.78747
    812294.26205  21196574.19005    632485.31446  21196577.58446
 -21935391.49207  19539567.29107 -17075326.98448  19539565.64748
   -827273.91006  20450538.53306   -645824.10547  20450538.47147
 04  2 13  4  0 59.9930000  0  7  7  8 11 20 27 28 31
  -7221334.51206  21772362.04406  -5607582.84346  21772363.76746
  -6076631.86306  20139571.66106  -4724317.08347  20139571.23247
  -9688448.94507  18406649.84107  -7538380.78448  18406647.66148
 -14128808.60207  20894693.40307 -10990323.05347  20894692.84947
    824528.96505  21198902.78605    642018.72446  21198906.27446
 -22003930.94107  19526524.70007 -17128734.34048  19526522.77848
   -824679.46507  20451032.24707   -643802.47047  20451032.04447
 04  2 13  4  1 14.9930000  0  7  7  8 11 20 27 28 31
  -7289507.50406  21759389.06006  -5660704.59847  21759391.22047
  -6077817.57406  20139345.88006  -4725241.07647  20139345.37647
  -9705200.20307  18403462.79407  -7551433.72848  18403459.88448
 -14208255.67606  20879573.91106 -11052229.78347  20879573.68547
    836793.25005  21201237.06005    651575.15946  21201240.45446
 -22072392.94907  19513496.83307 -17182081.34648  19513494.70848
   -822052.25007  20451532.25507   -641755.33947  20451531.91947
 04  2 13  4  1 29.9930000  0  7  7  8 11 20 27 28 31
  -7357673.48806  21746417.50506  -5713820.89447  21746419.09947
  -6078892.66805  20139140.75505  -4726078.81847  20139141.38847
  -9721850.32007  18400294.24707  -7564407.85048  18400291.33348
 -14287644.81306  20864466.18506 -11114091.34047  20864466.42747
    849086.30504  21203576.41104    661154.08246  21203579.30246
 -22140772.25407  19500484.70807 -17235363.90848  19500482.61848
   -819392.17607  20452038.97407   -639682.58347  20452038.03647
 04  2 13  4  1 44.9930000  0  7  7  8 11 20 27 28 31
  -7425831.90606  21733447.45006  -5766931.32747  21733448.16547
  -6079856.83206  20138957.36406  -4726830.15547  20138959.38447
  -9738398.80107  18397145.02807  -7577302.77348  18397142.41948
 -14366975.03107  20849370.70007 -11175907.00247  20849370.39947
    861408.39504  21205921.41104    670755.60746  21205924.61046
 -22209067.98407  19487488.45807 -17288581.34648  19487486.24748
   -816698.61307  20452551.31707   -637583.75047  20452550.65747
 04  2 13  4  1 59.9930000  0  7  7  8 11 20 27 28 31
  -7493984.37106  21720478.88006  -5820037.08347  21720479.81447
  -6080712.24206  20138795.09906  -4727496.75047  20138796.54047
  -9754847.55907  18394015.23907  -7590119.99948  18394012.52448
 -14446247.66406  20834285.05206 -11237677.79447  20834285.32547
    873757.54304  21208270.61404    680378.25546  21208274.47846
 -22277281.36307  19474508.15307 -17341734.61248  19474505.63448
   -813973.31307  20453069.99707   -635460.16647  20453068.87247
 04  2 13  4  2 14.9930000  0  7  7  8 11 20 27 28 31
  -7562129.77006  21707510.95806  -5873137.38947  21707512.07947
  -6081457.93006  20138653.52806  -4728077.87747  20138653.98947
  -9771195.57007  18390904.21607  -7602858.72748  18390901.89648
 -14525461.23806  20819211.59906 -11299402.59547  20819211.59147
    886134.45303  21210626.17703    690022.44945  21210630.06445
 -22345411.03507  19461543.39607 -17394822.67548  19461541.43548
   -811215.19107  20453594.88007   -633311.02747  20453594.16147
 04  2 13  4  2 29.9930000  0  7  7  8 11 20 27 28 31
  -7630269.28506  21694544.41906  -5926233.09647  21694545.88847
  -6082095.69906  20138532.12206  -4728574.90847  20138531.87247
  -9787444.40607  18387812.42707  -7615520.16248  18387809.55648
 -14604616.48006  20804148.56006 -11361081.92847  20804148.56747
    898537.52004  21212987.38004    699687.07645  21212990.30245
 -22413458.02007  19448594.01307 -17447846.27448  19448592.09148
   -808425.46907  20454125.67707   -631137.23347  20454124.59547
 04  2 13  4  2 44.9930000  0  7  7  8 11 20 27 28 31
  -7698401.72306  21681579.08306  -5979323.26546  21681580.74746
  -6082624.60906  20138432.02806  -4728987.05447  20138431.39247
  -9803592.98807  18384739.32507  -7628103.48648  18384736.92748
 -14683711.78906  20789097.70806 -11422714.56547  20789097.71647
    910967.52003  21215350.92703    709372.70345  21215355.59545
 -22481420.66407  19435661.24707 -17500804.16948  19435659.69648
   -805603.02007  20454662.70807   -628937.96147  20454661.55247
 04  2 13  4  2 59.9930000  0  7  7  8 11 20 27 28 31
  -7766527.39506  21668615.29406  -6032408.16946  21668616.99346
  -6083045.18406  20138351.84906  -4729314.80147  20138351.51347
  -9819641.84407  18381684.89607  -7640609.09148  18381682.96248
 -14762747.15207  20774058.23907 -11484300.49247  20774057.50147
    923423.94902  21217722.58302    719078.78145  21217726.19245
 -22549298.98407  19422744.56707 -17553696.34648  19422742.64648
   -802748.14807  20455205.83307   -626713.40647  20455205.07547
 04  2 13  4  3 14.9930000  0  7  7  8 11 20 27 28 31
  -7834646.08606  21655652.92706  -6085487.65247  21655654.74347
  -6083358.01606  20138292.41106  -4729558.60547  20138291.82547
  -9835591.12507  18378650.12207  -7653037.12848  18378647.88848
 -14841722.00006  20759029.21606 -11545839.28447  20759029.21647
    935906.12104  21220098.43504    728805.06645  21220101.13045
 -22617092.66407  19409843.59107 -17606522.57848  19409842.42348
   -799860.88307  20455755.62207   -624463.62247  20455754.55247
 04  2 13  4  3 29.9930000  0  7  7  8 11 20 27 28 31
  -7902758.03906  21642691.52106  -6138561.87146  21642693.52446
  -6083563.42206  20138253.23906  -4729718.70447  20138253.45847
  -9851441.03507  18375633.94207  -7665387.70448  18375631.82948
 -14920636.13307  20744012.27107 -11607330.71747  20744012.20847
    948413.73004  21222478.05204    738551.20045  21222481.44645
 -22684801.37507  19396959.25507 -17659282.60548  19396957.81448
   -796941.26607  20456311.31007   -622188.62747  20456310.66947
 04  2 13  4  3 44.9930000  0  7  7  8 11 20 27 28 31
  -7970863.46106  21629731.28606  -6191630.99346  21629732.85746
  -6083662.02706  20138234.22406  -4729795.55047  20138234.75947
  -9867192.08207  18372636.70007  -7677661.26748  18372634.56748
 -14999489.51606  20729006.67706 -11668774.85847  20729007.03647
    960946.24605  21224863.70805    748316.66845  21224865.64645
 -22752425.18407  19384090.88007 -17711976.47848  19384089.59548
   -793989.77707  20456872.92707   -619888.77847  20456872.11847
 04  2 13  4  3 59.9930000  0  7  7  8 11 20 27 28 31
  -8038961.84006  21616772.25506  -6244694.66547  21616774.41547
  -6083653.78906  20138235.88006  -4729789.16247  20138236.60347
  -9882844.09807  18369658.32507  -7689857.65948  18369655.79048
 -15078281.21507  20714013.38007 -11730170.90947  20714013.72447
    973503.49605  21227253.35705    758101.45946  21227255.69246
 -22819963.27707  19371238.68507 -17764603.55848  19371238.07548
   -791005.92207  20457440.51307   -617563.74147  20457439.84147
 04  2 13  4  4 14.9930000  0  7  7  8 11 20 27 28 31
  -8107053.44506  21603814.81006  -6297753.02447  21603816.95047
  -6083539.29706  20138258.04406  -4729700.01947  20138258.98947
  -9898397.50007  18366698.58307  -7701977.21648  18366695.71248
 -15157011.03506  20699031.45006 -11791518.74847  20699031.42347
    986085.12505  21229646.55205    767905.17246  21229649.60346
 -22887415.52007  19358402.94207 -17817163.73848  19358401.76348
   -787989.89506  20458014.83306   -615213.63347  20458013.88447
 04  2 13  4  4 29.9930000  0  7  7  8 11 20 27 28 31
  -8175138.58206  21590859.09106  -6350806.32647  21590859.87247
  -6083319.32006  20138299.53606  -4729528.61347  20138299.92747
  -9913852.90207  18363757.70807  -7714020.39148  18363754.86448
 -15235678.86706  20684061.90306 -11852818.30247  20684061.05247
    998690.22306  21232045.80206    777727.27346  21232048.83346
 -22954782.13707  19345583.45807 -17869657.19148  19345582.12648
   -784942.16806  20458594.52106   -612838.82247  20458593.66147
 04  2 13  4  4 44.9930000  0  7  7  8 11 20 27 28 31
  -8243216.58605  21577904.53605  -6403854.13847  21577905.63047
  -6082993.45706  20138361.29406  -4729274.74447  20138361.86047
  -9929209.76207  18360835.25507  -7725986.79248  18360832.37248
 -15314283.66006  20669103.91906 -11914068.75247  20669102.87647
   1011319.20306  21234449.53606    787567.89446  21234451.93546
 -23022062.01607  19332780.50507 -17922083.06648  19332779.10348
   -781862.07406  20459180.73906   -610438.78247  20459180.00547
 04  2 13  4  4 59.9930000  0  7  7  8 11 20 27 28 31
  -8311288.30505  21564950.67705  -6456896.99547  21564951.99347
  -6082562.97306  20138443.81006  -4728939.35647  20138444.75147
  -9944469.25007  18357931.32507  -7737877.30748  18357928.39948
 -15392825.98806  20654157.38006 -11975270.50947  20654156.55247
   1023970.73406  21236856.25506    797426.17546  21236859.47846
 -23089255.77007  19319994.38807 -17974441.82248  19319991.96248
   -778750.54306  20459773.43506   -608014.25747  20459772.22847
 04  2 13  4  5 14.9930000  0  7  7  8 11 20 27 28 31
  -8379352.74605  21551998.73205  -6509934.18147  21551999.60747
  -6082027.41005  20138545.66905  -4728522.06047  20138546.89647
  -9959630.57007  18355046.28607  -7749691.33048  18355043.40748
 -15471304.52306  20639223.03606 -12036422.55547  20639222.88847
   1036645.35906  21239268.62206    807302.38946  21239271.46646
 -23156362.06307  19307224.10707 -18026732.44348  19307222.31448
   -775606.73006  20460371.41906   -605564.57547  20460370.42747
 04  2 13  4  5 29.9930000  0  7  7  8 11 20 27 28 31
  -8447410.45306  21539047.62206  -6562966.10547  21539049.08347
  -6081387.59006  20138666.90306  -4728023.54147  20138667.95847
  -9974694.35507  18352179.87207  -7761429.34948  18352177.25548
 -15549719.23406  20624301.31006 -12097524.84947  20624300.86847
   1049342.22706  21241685.09906    817195.95546  21241687.89946
 -23223381.21507  19294470.55207 -18078955.14748  19294469.38448
   -772430.97306  20460975.01306   -603089.97347  20460974.89947
 04  2 13  4  5 44.9930000  0  7  7  8 11 20 27 28 31
  -8515461.29706  21526097.99706  -6615992.70347  21526099.22047
  -6080643.68406  20138808.81706  -4727443.90647  20138809.49747
  -9989660.77307  18349331.83307  -7773091.51648  18349329.48948
 -15628069.73807  20609391.96607 -12158577.14147  20609391.24347
   1062061.04306  21244105.39606    827106.62646  21244109.23546
 -23290312.66007  19281734.15307 -18131109.49848  19281732.16548
   -769223.31606  20461585.59906   -600590.52847  20461585.89647
 04  2 13  4  5 59.9930000  0  7  7  8 11 20 27 28 31
  -8583504.79706  21513149.27106  -6669013.58347  21513151.18947
  -6079795.82006  20138970.85706  -4726783.25147  20138970.57547
 -10004529.78507  18346502.49707  -7784677.77448  18346499.86448
 -15706355.21906  20594494.33306 -12219578.76547  20594493.73547
   1074801.85506  21246529.47406    837034.44146  21246533.24746
 -23357155.71107  19269014.39607 -18183194.97448  19269012.03248
   -765983.47306  20462202.41906   -598065.99647  20462202.50947
 04  2 13  4  6 14.9930000  0  7  7  8 11 20 27 28 31
  -8651541.31606  21500201.98906  -6722029.01447  21500204.27147
  -6078844.61306  20139151.34906  -4726042.10647  20139151.42347
 -10019301.82007  18343691.34907  -7796188.47048  18343688.79048
 -15784575.56307  20579610.26307 -12280529.62247  20579608.54447
   1087564.02706  21248958.41906    846978.86147  21248962.59147
 -23423910.50407  19256311.16107 -18235211.69948  19256309.26348
   -762711.69906  20462824.98906   -595516.60747  20462825.24347
 04  2 13  4  6 29.9930000  0  7  7  8 11 20 27 28 31
  -8719570.37106  21487256.98906  -6775038.63346  21487259.02446
  -6077789.98406  20139352.70806  -4725220.35447  20139352.16147
 -10033976.77307  18340898.59107  -7807623.49748  18340895.98548
 -15862730.07807  20564737.13007 -12341429.19947  20564735.95447
   1100347.47306  21251391.38806    856939.83747  21251394.87647
 -23490576.28107  19243624.94207 -18287159.03648  19243623.29448
   -759407.72706  20463453.86406   -592942.09547  20463453.63447
 04  2 13  4  6 44.9930000  0  7  7  8 11 20 27 28 31
  -8787592.89806  21474311.65306  -6828043.14446  21474314.68146
  -6076633.38706  20139572.64606  -4724319.11847  20139573.23547
 -10048555.72707  18338124.61407  -7818983.73548  18338122.18148
 -15940819.12907  20549877.38007 -12402277.75047  20549876.49747
   1113150.84806  21253828.20006    866916.41446  21253830.65746
 -23557153.61307  19230955.80207 -18339037.46648  19230953.66148
   -756072.44106  20464087.50506   -590343.19747  20464088.54847
 04  2 13  4  6 59.9930000  0  7  7  8 11 20 27 28 31
  -8855607.81606  21461369.01306  -6881041.78346  21461371.87646
  -6075373.88706  20139811.77806  -4723337.74147  20139812.79447
 -10063037.49207  18335368.41107  -7830268.23348  18335366.27448
 -16018841.28107  20535030.20007 -12463074.17647  20535029.53247
   1125975.03106  21256268.25506    876909.19246  21256271.55246
 -23623640.98007  19218303.67707 -18390845.79648  19218301.34948
   -752704.78106  20464728.86406   -587719.07547  20464729.84547
 04  2 13  4  7 14.9930000  0  7  7  8 11 20 27 28 31
  -8923616.00005  21448427.31705  -6934035.12046  21448430.35346
  -6074012.98006  20140070.86406  -4722277.33247  20140071.94647
 -10077423.37107  18332631.13807  -7841478.02748  18332628.95448
 -16096797.10207  20520195.54407 -12523818.93347  20520194.48247
   1138818.58206  21258711.91906    886917.03346  21258715.02146
 -23690039.06607  19205668.25507 -18442584.56148  19205666.64248
   -749305.80106  20465375.40306   -585070.58147  20465376.59947
 04  2 13  4  7 29.9930000  0  7  7  8 11 20 27 28 31
  -8991617.86705  21435487.85705  -6987023.55046  21435489.84546
  -6072551.46504  20140348.41904  -4721138.50847  20140349.67747
 -10091714.00007  18329911.73907  -7852613.58248  18329909.61448
 -16174686.72706  20505373.65306 -12584512.08147  20505372.37647
   1151680.69106  21261159.70006    896939.31746  21261162.21246
 -23756348.03507  19193050.32507 -18494253.89348  19193048.31748
   -745875.96506  20466028.57506   -582398.01847  20466029.96647
 04  2 13  4  7 44.9930000  0  7  7  8 11 20 27 28 31
  -9059612.60506  21422549.32506  -7040006.43546  21422550.51746
  -6070988.78905  20140646.20805  -4719920.86147  20140646.90747
 -10105908.76607  18327210.78607  -7863674.44048  18327208.22448
 -16252508.70707  20490564.77107 -12645152.54747  20490563.05647
   1164561.86306  21263611.40306    906976.50046  21263614.09146
 -23822566.68407  19180448.88007 -18545852.82248  19180447.59548
   -742414.26206  20466687.47406   -579700.61447  20466688.43147
 04  2 13  4  7 59.9930000  0  7  7  8 11 20 27 28 31
  -9127599.84805  21409611.46605  -7092983.45946  21409612.58346
  -6069325.06306  20140963.05206  -4718624.46247  20140963.45047
 -10120007.81607  18324527.74707  -7874660.73348  18324525.15348
 -16330262.50407  20475768.84107 -12705739.88147  20475767.16547
   1177461.93006  21266065.99706    917028.31646  21266068.77446
 -23888694.50407  19167865.78607 -18597380.99648  19167863.70848
   -738920.69506  20467352.07506   -576978.39247  20467352.81747
 04  2 13  4  8 14.9930000  0  7  7  8 11 20 27 28 31
  -9195580.42606  21396675.02106  -7145955.30946  21396675.09946
  -6067561.55105  20141298.26305  -4717250.32147  20141299.32147
 -10134012.07007  18321862.60707  -7885573.13748  18321860.23548
 -16407948.41407  20460985.77807 -12766274.29447  20460984.13047
   1190379.89806  21268524.16906    927094.18346  21268527.11846
 -23954731.93807  19155299.37207 -18648838.73248  19155297.47448
   -735395.91406  20468023.17706   -574231.85847  20468023.46247
 04  2 13  4  8 29.9930000  0  7  7  8 11 20 27 28 31
  -9263551.93006  21383741.27806  -7198920.04646  21383741.06446
  -6065696.23405  20141653.56705  -4715796.85647  20141654.27147
 -10147919.43407  18319216.09107  -7896410.04148  18319213.56048
 -16485563.77007  20446215.79407 -12826753.74647  20446214.06447
   1203317.52006  21270986.41906    937175.32046  21270989.46646
 -24020676.38707  19142750.63807 -18700224.00648  19142748.86848
   -731837.70307  20468700.23207   -571459.26347  20468700.36047
 04  2 13  4  8 44.9930000  0  7  7  8 11 20 27 28 31
  -9331516.10206  21370807.09906  -7251879.09746  21370808.09146
  -6063731.25406  20142028.19206  -4714265.73647  20142028.23947
 -10161731.97307  18316587.63007  -7907173.07248  18316584.92348
 -16563110.05507  20431459.02107 -12887179.38047  20431458.00947
   1216272.74206  21273452.22406    947270.15146  21273454.89646
 -24086529.27707  19130219.19207 -18751537.93248  19130217.52848
   -728247.98006  20469383.53606   -568662.10247  20469382.81447
 04  2 13  4  8 59.9930000  0  7  7  8 11 20 27 28 31
  -9399474.68005  21357874.98205  -7304833.77746  21357876.08346
  -6061668.84006  20142419.79406  -4712658.67447  20142420.04447
 -10175451.36707  18313977.09107  -7917863.51448  18313973.84148
 -16640588.46506  20416715.40306 -12947552.12047  20416714.23247
   1229243.52306  21275920.58306    957377.13246  21275923.41546
 -24152291.92207  19117705.22407 -18802781.56248  19117703.05648
   -724628.20706  20470071.97406   -565841.51947  20470072.12247
 04  2 13  4  9 14.9930000  0  7  7  8 11 20 27 28 31
  -9467426.34805  21344944.52805  -7357783.09846  21344945.29846
  -6059507.95705  20142831.12205  -4710974.94547  20142831.38847
 -10189076.57807  18311384.27807  -7928480.58148  18311381.70048
 -16717997.42207  20401985.01307 -13007870.73547  20401984.16547
   1242230.68405  21278391.75505    967496.87547  21278395.91947
 -24217962.85207  19105208.27107 -18853953.70848  19105206.34148
   -720977.41806  20470767.70006   -562996.79247  20470766.69247
 04  2 13  4  9 29.9930000  0  7  7  8 11 20 27 28 31
  -9535370.78105  21332015.13805  -7410726.77546  21332016.17346
  -6057248.79705  20143261.05205  -4709214.60446  20143261.83346
 -10202607.57807  18308809.42707  -7939024.21748  18308806.66948
 -16795336.19506  20387267.58306 -13068134.67647  20387266.89647
   1255234.09805  21280866.71605    977629.23546  21280870.60346
 -24283541.51607  19092729.11407 -18905053.93948  19092726.86448
   -717295.29306  20471467.66106   -560127.64247  20471467.38047
 04  2 13  4  9 44.9930000  0  7  7  8 11 20 27 28 31
  -9603307.23006  21319087.57506  -7463664.21746  21319088.68546
  -6054890.93805  20143710.02105  -4707377.32046  20143710.50146
 -10216043.73407  18306252.60707  -7949493.97548  18306249.89248
 -16872603.61307  20372564.01307 -13128343.01847  20372563.94647
   1268254.28105  21283343.55205    987774.69646  21283348.36446
 -24349026.79307  19080267.59107 -18956081.41648  19080266.04448
   -713581.05906  20472174.40306   -557233.47347  20472174.04847
 04  2 13  4  9 59.9930000  0  7  7  8 11 20 27 28 31
  -9671237.36306  21306160.06706  -7516596.73046  21306161.95446
  -6052436.45706  20144177.36406  -4705464.76047  20144177.67747
 -10229387.14507  18303713.41107  -7959891.44648  18303711.28648
 -16949800.91407  20357873.69207 -13188496.70347  20357873.70847
   1281289.12104  21285824.90304    997931.58646  21285828.30646
 -24414420.07407  19067823.96607 -19007037.21748  19067821.59948
   -709836.49607  20472886.62207   -554315.64847  20472886.89247
 04  2 13  4 10 14.9930000  0  7  7  8 11 20 27 28 31
  -9739159.84806  21293234.97406  -7569523.31446  21293236.05246
  -6049884.48006  20144663.38006  -4703476.25347  20144663.30647
 -10242636.75007  18301191.79407  -7970215.80548  18301190.27448
 -17026926.57807  20343197.45007 -13248594.56747  20343197.22047
   1294339.36304  21288308.20004   1008100.45946  21288312.35346
 -24479719.82407  19055397.52107 -19057920.13948  19055395.62248
   -706060.33606  20473605.82506   -551373.23647  20473605.08747
 04  2 13  4 10 29.9930000  0  7  7  8 11 20 27 28 31
  -9807074.64806  21280311.40306  -7622443.90346  21280311.97046
  -6047235.30905  20145166.59905  -4701412.00047  20145167.18147
 -10255792.64507  18298688.45807  -7980467.15548  18298687.13048
 -17103979.99607  20328534.90307 -13308636.15047  20328534.24347
   1307404.75402  21290793.56702   1018281.17546  21290798.54846
 -24544925.60507  19042989.24707 -19108729.82848  19042987.19648
   -702252.54306  20474330.31706   -548406.16647  20474330.10347
 04  2 13  4 10 44.9930000  0  7  7  8 11 20 27 28 31
  -9874982.62906  21267388.82506  -7675359.18946  21267389.50146
  -6044490.33205  20145688.95805  -4699273.04746  20145689.57146
 -10268855.95707  18296202.86407  -7990646.37348  18296201.11448
 -17180961.84807  20313885.60707 -13368621.96147  20313884.70447
         0.00000  21293279.40301   1028472.74655  21293287.39245
 -24610038.08607  19030598.41907 -19159466.81548  19030597.09148
   -698414.02306  20475060.68506   -545415.12547  20475060.24347
 04  2 13  4 10 59.9930000  0  7  7  8 11 20 27 28 31
  -9942884.12906  21254467.79406  -7728269.40246  21254467.98946
  -6041650.19105  20146229.81705  -4697060.03147  20146230.11047
 -10281827.60907  18293734.36407  -8000754.16148  18293732.11048
 -17257872.12107  20299249.53607 -13428551.99747  20299248.92747
   1333576.68411  21295772.54401   1038674.61255  21295779.69645
 -24675057.23407  19018225.82507 -19210131.08448  19018224.41948
   -694545.33206  20475797.27806   -542400.61347  20475796.91147
 04  2 13  4 11 14.9930000  0  7  7  8 11 20 27 28 31
 -10010778.32006  21241547.50506  -7781174.01146  21241546.97846
  -6038714.52705  20146788.09105  -4694772.55547  20146788.87647
 -10294706.59408  18291283.71608  -8010789.75048  18291281.06748
 -17334709.54307  20284627.87207 -13488425.27247  20284626.91547
         0.00000  21298265.83301   1048886.87555  21298273.70045
 -24739981.92207  19005870.98207 -19260721.74548  19005869.85348
   -690645.59006  20476539.23206   -539361.89647  20476539.09547
 04  2 13  4 11 29.9930000  0  7  7  8 11 20 27 28 31
 -10078665.41006  21228628.84106  -7834073.04546  21228628.17346
  -6035683.98006  20147364.83306  -4692411.13647  20147365.93947
 -10307493.35907  18288850.63807  -8020753.47848  18288847.65348
 -17411473.92607  20270020.43507 -13548241.62947  20270019.17747
   1359801.62502  21300763.58302   1059109.42545  21300770.08345
 -24804812.04307  18993534.31707 -19311238.72148  18993532.81448
   -686715.02707  20477287.74707   -536299.14747  20477286.89247
 04  2 13  4 11 44.9930000  0  7  7  8 11 20 27 28 31
 -10146545.26206  21215711.83306  -7886966.39246  21215712.66946
  -6032558.81305  20147959.94205  -4689975.99346  20147960.59146
 -10320188.03507  18286434.80207  -8030645.45048  18286432.11848
 -17488164.85207  20255426.48207 -13608000.75047  20255425.60747
   1372933.37102  21303262.59102   1069341.81945  21303268.95045
 -24869547.28107  18981215.49707 -19361681.75148  18981214.25548
   -682753.64107  20478041.62207   -533212.39447  20478041.44647
 04  2 13  4 11 59.9930000  0  7  7  8 11 20 27 28 31
 -10214417.29306  21202796.32506  -7939853.66746  21202797.16146
  -6029338.80505  20148572.73905  -4687466.91747  20148573.54447
 -10332790.27307  18284036.56007  -8040465.38648  18284034.31048
 -17564781.32807  20240846.91107 -13667701.86647  20240845.40747
   1386078.04703  21305764.58303   1079584.23946  21305770.45446
 -24934186.68407  18968915.38007 -19412050.11748  18968913.75148
   -678760.81607  20478801.18507   -530101.12947  20478801.11847
 04  2 13  4 12 14.9930000  0  7  7  8 11 20 27 28 31
 -10282282.69906  21189881.72406  -7992735.76546  21189881.78646
  -6026025.52005  20149203.74705  -4684885.17147  20149204.72047
 -10345301.59407  18281655.68507  -8050214.47848  18281653.27448
 -17641324.14507  20226281.41907 -13727345.57447  20226279.94247
   1399234.15205  21308269.56705   1089835.63546  21308273.77146
 -24998731.21108  18956633.10708 -19462344.55548  18956631.47048
   -674737.83207  20479566.77107   -526966.38947  20479566.49347
 04  2 13  4 12 29.9930000  0  7  7  8 11 20 27 28 31
 -10350140.71106  21176968.66106  -8045612.08846  21176969.04446
  -6022618.68006  20149851.74706  -4682230.56847  20149853.11047
 -10357721.43407  18279292.29407  -8059892.27248  18279290.03648
 -17717792.19107  20211729.95007 -13786931.02947  20211728.51747
   1412401.77705  21310776.03605   1100096.01746  21310779.85346
 -25063179.90207  18944368.79407 -19512564.31248  18944367.11448
   -670684.05107  20480338.43507   -523807.62247  20480338.41547
 04  2 13  4 12 44.9920000  0  7  7  8 11 20 27 28 31
 -10417986.57006  21164058.08606  -8098478.96146  21164059.32846
  -6019118.84805  20150517.61705  -4679503.41947  20150518.52347
 -10370049.04307  18276946.30507  -8069498.20448  18276944.03948
 -17794179.84407  20197193.36707 -13846453.82447  20197192.61747
   1425580.05505  21313284.00005   1110364.63746  21313287.36746
 -25127527.95307  18932123.79707 -19562705.63748  18932121.75048
   -666599.58206  20481115.77306   -520624.93147  20481115.18047
 04  2 13  4 12 59.9920000  0  7  7  8 11 20 27 28 31
 -10485829.78106  21151148.11706  -8151343.77447  21151148.97347
  -6015526.25805  20151201.05505  -4676704.05047  20151202.89547
 -10382286.70707  18274617.97707  -8079034.05848  18274615.97348
 -17870497.27007  20182670.92207 -13905921.92247  20182669.85947
   1438769.92605  21315794.16405   1120642.34246  21315797.33246
 -25191784.08607  18919896.18007 -19612775.34948  18919894.30148
   -662484.36306  20481898.58606   -517418.31947  20481898.14547
 04  2 13  4 13 14.9920000  0  7  7  8 11 20 27 28 31
 -10553665.55106  21138239.45306  -8204202.75946  21138239.94146
  -6011841.41805  20151902.44505  -4673832.78247  20151903.67647
 -10394433.52707  18272306.22707  -8088499.11249  18272304.61749
 -17946738.84407  20168162.24207 -13965330.89947  20168161.79347
   1451970.27005  21318305.86705   1130928.17546  21318309.88746
 -25255943.44507  18907687.10207 -19662769.64348  18907685.19548
   -658338.38706  20482687.32006   -514187.70347  20482687.21547
 04  2 13  4 13 29.9920000  0  7  7  8 11 20 27 28 31
 -10621493.97706  21125331.73406  -8257056.05446  21125332.14846
  -6008064.67606  20152620.96906  -4670889.88747  20152622.16447
 -10406489.88307  18270012.10207  -8097893.68948  18270010.29348
 -18022904.29707  20153668.57807 -14024680.56547  20153667.59047
   1465180.57005  21320819.17205   1141221.84446  21320823.27746
 -25320005.77007  18895496.60207 -19712688.33348  18895494.34048
   -654161.93807  20483482.09407   -510933.36947  20483481.57447
 04  2 13  4 13 44.9920000  0  7  7  8 11 20 27 28 31
 -10689314.58606  21112426.12506  -8309903.21346  21112426.39846
  -6004196.12906  20153357.74206  -4667875.47647  20153358.23447
 -10418455.74207  18267735.30507  -8107217.74348  18267732.82048
 -18098992.72707  20139189.38307 -14083970.19947  20139188.42647
   1478400.93805  21323334.86705   1151523.33846  21323339.16046
 -25383970.40607  18883324.66407 -19762530.90548  18883321.85648
   -649954.59806  20484282.92206   -507654.95447  20484282.30947
 04  2 13  4 13 59.9920000  0  7  7  8 11 20 27 28 31
 -10757128.09406  21099521.61706  -8362744.89046  21099522.40646
  -6000236.80506  20154111.14806  -4664790.32347  20154111.20747
 -10430331.83207  18265475.41407  -8116471.85448  18265472.49248
 -18175004.45307  20124724.89807 -14143200.08447  20124723.47747
   1491630.38305  21325853.22705   1161831.84346  21325857.16846
 -25447837.60507  18871170.96107 -19812297.55848  18871168.55948
   -645716.93406  20485089.38306   -504352.91747  20485088.65247
 04  2 13  4 14 14.9920000  0  7  7  8 11 20 27 28 31
 -10824934.96106  21086618.35906  -8415581.35046  21086619.15646
  -5996187.60206  20154881.00006  -4661635.15746  20154881.78146
 -10442119.00407  18263231.88307  -8125656.67548  18263229.81348
 -18250939.71907  20110274.70307 -14202370.39047  20110274.08647
   1504867.89505  21328372.04705   1172146.68046  21328376.53946
 -25511607.81307  18859036.00007 -19861988.61548  18859033.55548
   -641449.64806  20485901.60906   -501027.80547  20485900.87547
 04  2 13  4 14 29.9920000  0  7  7  8 11 20 27 28 31
 -10892733.84006  21073716.71906  -8468411.64147  21073717.18047
  -5992047.69906  20155669.43806  -4658409.30746  20155669.29746
 -10453816.21107  18261006.33607  -8134771.39548  18261003.99648
 -18326796.82007  20095839.62507 -14261479.78947  20095838.93047
   1518114.43405  21330892.96105   1182468.54346  21330896.99646
 -25575279.27707  18846919.63307 -19911602.74448  18846917.12548
   -637151.47706  20486719.57006   -497678.59447  20486718.48847
 04  2 13  4 14 44.9920000  0  7  7  8 11 20 27 28 31
 -10960524.33606  21060816.58606  -8521235.40447  21060817.25447
  -5987817.16406  20156474.85906  -4655112.81046  20156474.04746
 -10465423.29707  18258797.29707  -8143815.89548  18258794.98848
 -18402574.88707  20081419.19507 -14320527.58747  20081418.56347
   1531370.00405  21333415.17205   1192797.43646  21333419.38346
 -25638851.41807  18834822.72707 -19961139.47348  18834819.80148
   -632822.03906  20487543.15606   -494305.03847  20487541.87947
 04  2 13  4 14 59.9920000  0  7  7  8 11 20 27 28 31
 -11028307.21106  21047917.79706  -8574053.23547  21047919.06347
  -5983497.02706  20157296.54706  -4651746.50446  20157295.88746
 -10476941.12907  18256605.63307  -8152790.83348  18256603.29348
 -18478274.32007  20067014.10907 -14379514.12047  20067013.27747
   1544633.46906  21335939.46906   1203132.51046  21335943.68846
 -25702324.76207  18822743.65607 -20010599.22348  18822741.13748
   -628462.20306  20488372.67206   -490907.80947  20488371.79747
 04  2 13  4 15 14.9920000  0  7  7  8 11 20 27 28 31
 -11096082.56306  21035020.66406  -8626865.14747  21035021.39547
  -5979087.89106  20158136.31306  -4648310.83946  20158135.52746
 -10488370.00407  18254430.82007  -8161696.45948  18254428.55548
 -18553894.91807  20052624.00807 -14438439.23947  20052623.28147
   1557904.41805  21338464.73405   1213473.33446  21338469.05546
 -25765698.95307  18810683.79707 -20059981.70148  18810681.60648
   -624072.03106  20489207.93006   -487486.90947  20489207.56347
 04  2 13  4 15 29.9920000  0  7  7  8 11 20 27 28 31
 -11163850.75806  21022124.71906  -8679671.50747  21022126.20747
  -5974590.60505  20158991.70305  -4644806.53146  20158991.52746
 -10499710.60507  18252272.28107  -8170533.30048  18252270.22748
 -18629436.76207  20038248.53107 -14497302.98347  20038247.64547
   1571181.94905  21340991.27305   1223819.33146  21340995.12946
 -25828974.16407  18798643.14107 -20109287.05048  18798640.68848
   -619651.98806  20490049.07806   -484042.74947  20490048.53947
 04  2 13  4 15 44.9920000  0  6  7  8 11 20 28 31
 -11231611.56606  21009230.29706  -8732472.09647  21009232.20747
  -5970005.23005  20159864.36705  -4641233.58746  20159864.56646
 -10510963.05507  18250131.17207  -8179301.44948  18250128.68048
 -18704899.22307  20023888.22707 -14556104.85647  20023888.12947
 -25892149.88307  18786621.03907 -20158514.87148  18786619.68448
   -615201.95306  20490896.25806   -480575.22547  20490895.49247
 04  2 13  4 15 59.9920000  0  6  7  8 11 20 28 31
 -11299364.56306  20996337.32006  -8785266.60047  20996338.95747
  -5965331.84006  20160753.37506  -4637592.04546  20160754.63746
 -10522127.03107  18248006.80507  -8188000.67148  18248004.26648
 -18780281.39107  20009543.94507 -14614844.17947  20009543.08647
 -25955225.27707  18774618.00007 -20207664.53648  18774616.53148
   -610721.46906  20491748.69506   -477083.96747  20491748.33647
 04  2 13  4 16 14.9920000  0  6  7  8 11 20 28 31
 -11367109.13706  20983446.55506  -8838054.50947  20983447.51247
  -5960570.35906  20161659.46106  -4633881.86547  20161660.71147
 -10533202.38307  18245899.71107  -8196630.83648  18245897.50848
 -18855582.42607  19995214.47707 -14673520.27847  19995213.52047
 -26018199.75407  18762634.57007 -20256735.54848  18762632.74648
   -606210.15206  20492607.14106   -473568.69047  20492607.07047
 04  2 13  4 16 29.9920000  0  6  7  8 11 20 28 31
 -11434845.38306  20970556.03106  -8890835.97247  20970557.95747
  -5955721.14105  20162581.92205  -4630103.30147  20162583.69147
 -10544189.32407  18243808.71107  -8205192.09448  18243806.62548
 -18930802.10207  19980900.59407 -14732132.98547  19980899.57847
 -26081072.91407  18750670.33607 -20305727.61648  18750668.54748
   -601667.97706  20493471.66406   -470029.32847  20493471.24247
 04  2 13  4 16 44.9920000  0  6  7  8 11 20 28 31
 -11502572.73406  20957668.29706  -8943610.50847  20957669.05947
  -5950784.10505  20163521.77305  -4626256.30746  20163523.57846
 -10555087.66007  18241735.13307  -8213684.30848  18241733.04748
 -19005939.52007  19966602.71107 -14790681.60747  19966601.69947
 -26143844.02007  18738725.16407 -20354640.17048  18738723.24248
   -597094.65606  20494341.85906   -466465.73147  20494341.35647
 04  2 13  4 16 59.9920000  0  6  7  8 11 20 28 31
 -11570290.03906  20944782.15606  -8996377.19647  20944782.38347
  -5945758.63306  20164477.78106  -4622340.40547  20164480.03947
 -10565896.31607  18239678.04707  -8222106.65548  18239676.37948
 -19080993.05507  19952320.33607 -14849164.84647  19952319.50847
 -26206511.67207  18726800.07007 -20403472.10548  18726798.18848
   -592488.84806  20495218.60206   -462876.83447  20495217.99247
 04  2 13  4 17 14.9920000  0  6  7  8 11 20 28 31
 -11637997.50806  20931897.18006  -9049136.20647  20931898.20747
  -5940645.27705  20165450.79705  -4618356.01346  20165452.89546
 -10576615.78907  18237638.26607  -8230459.50148  18237636.75048
 -19155962.55907  19938054.14807 -14907582.60147  19938053.32847
 -26269075.74607  18714894.53907 -20452223.33248  18714892.94148
   -587850.97706  20496101.08606   -459262.96747  20496100.54747
 04  2 13  4 17 29.9920000  0  6  7  8 11 20 28 31
 -11705695.91806  20919014.70306  -9101888.19547  20919015.79747
  -5935445.14105  20166440.32005  -4614303.96746  20166442.52046
 -10587247.12507  18235615.21907  -8238743.66948  18235613.75848
 -19230848.56307  19923803.94507 -14965935.28147  19923802.52047
 -26331536.68808  18703008.67208 -20500894.19248  18703006.50048
   -583181.90206  20496989.25806   -455624.75147  20496989.30947
 04  2 13  4 17 44.9920000  0  6  7  8 11 20 28 31
 -11773384.71106  20906134.35906  -9154632.67247  20906135.19547
  -5930158.31306  20167446.30506  -4610184.42646  20167448.28946
 -10597790.28907  18233608.66407  -8246959.14448  18233607.07848
 -19305650.24607  19909569.36707 -15024222.29647  19909568.69547
 -26393893.98007  18691142.37507 -20549484.28648  18691140.23848
   -578481.07406  20497884.26606   -451961.81647  20497883.86747
 04  2 13  4 17 59.9920000  0  6  7  8 11 20 28 31
 -11841065.00006  20893254.98406  -9207370.52847  20893255.76647
  -5924786.18406  20168468.62506  -4605998.42747  20168470.29747
 -10608246.32407  18231619.03107  -8255106.71848  18231617.41448
 -19380368.16807  19895351.25007 -15082444.04347  19895350.45747
 -26456148.21507  18679295.95307 -20597994.08748  18679293.60248
   -573749.61306  20498784.53906   -448274.99147  20498784.18047
 04  2 13  4 18 14.9920000  0  6  7  8 11 20 28 31
 -11908735.87106  20880377.50806  -9260101.01447  20880377.94547
  -5919328.45706  20169507.63306  -4601745.69947  20169508.57047
 -10618614.58607  18229646.25007  -8263185.90048  18229643.97748
 -19455001.06607  19881148.64807 -15140599.51447  19881148.86347
 -26518298.26607  18667469.25807 -20646422.69048  18667466.94148
   -568986.78106  20499690.97706   -444563.72247  20499690.15247
 04  2 13  4 18 29.9920000  0  6  7  8 11 20 28 31
 -11976398.11706  20867502.00006  -9312824.79347  20867502.37147
  -5913786.11306  20170562.54706  -4597427.07947  20170563.35647
 -10628896.11307  18227689.71107  -8271197.49548  18227687.28148
 -19529549.35207  19866962.82007 -15198689.04647  19866962.69147
 -26580344.42607  18655662.22707 -20694770.34248  18655659.78148
   -564193.41006  20500603.16406   -440828.66847  20500602.63347
 04  2 13  4 18 44.9920000  0  6  7  8 11 20 28 31
 -12044051.63306  20854627.89106  -9365541.82547  20854628.48447
  -5908159.75006  20171633.43806  -4593042.94147  20171633.44147
 -10639091.19507  18225749.78107  -8279141.72448  18225747.09848
 -19604012.78907  19852792.67207 -15256712.48547  19852792.83247
 -26642286.62107  18643874.82007 -20743036.98848  18643873.09448
   -559369.52306  20501521.62506   -437069.84947  20501520.50847
 04  2 13  4 18 59.9920000  0  6  7  8 11 20 28 31
 -12111696.27006  20841755.85906  -9418251.87147  20841756.48847
  -5902449.50806  20172719.48406  -4588593.48447  20172719.94547
 -10649199.84007  18223826.18007  -8287018.60348  18223823.99248
 -19678390.77307  19838639.28107 -15314669.32047  19838639.07447
 -26704124.30107  18632107.59407 -20791222.19148  18632105.99648
   -554514.89806  20502444.75006   -433287.06447  20502444.18047
 04  2 13  4 19 14.9920000  0  6  7  8 11 20 28 31
 -12179332.41806  20828884.74206  -9470955.31247  20828886.18047
  -5896656.24206  20173822.49206  -4584079.30347  20173823.04747
 -10659222.80507  18221918.89807  -8294828.71448  18221916.20748
 -19752683.45707  19824501.53107 -15372559.70347  19824501.02347
 -26765857.73807  18620359.90607 -20839326.17048  18620358.43048
   -549630.09006  20503374.39106   -429480.75947  20503373.50847
 04  2 13  4 19 29.9920000  0  6  7  8 11 20 28 31
 -12246959.92606  20816015.39106  -9523652.03747  20816017.03147
  -5890780.22706  20174940.89806  -4579500.62247  20174941.81347
 -10669160.23407  18220027.90607  -8302572.17448  18220025.69148
 -19826890.20707  19810380.50807 -15430383.10547  19810379.88747
 -26827486.43407  18608632.40607 -20887348.52648  18608630.84448
   -544715.00006  20504310.03906   -425650.87247  20504309.11747
 04  2 13  4 19 44.9920000  0  6  7  8 11 20 28 31
 -12314579.75806  20803147.68806  -9576342.79247  20803149.46947
  -5884822.88705  20176074.47705  -4574858.59947  20176076.12547
 -10679013.38307  18218153.18807  -8310249.96948  18218150.70748
 -19901011.75407  19796275.56307 -15488140.12647  19796274.70347
 -26889011.13707  18596924.84407 -20935289.84848  18596922.84848
   -539770.61706  20505250.75806   -421798.12847  20505250.10647
 04  2 13  4 19 59.9920000  0  6  7  8 11 20 28 31
 -12382190.53906  20790282.02306  -9629026.48447  20790283.05947
  -5878783.24606  20177223.96106  -4570152.43447  20177225.03547
 -10688780.98807  18216294.18007  -8317861.09948  18216292.25048
 -19975046.21907  19782187.71907 -15545829.28947  19782186.55147
 -26950430.13707  18585237.14807 -20983148.80348  18585234.68048
   -534795.71506  20506198.14106   -417921.62147  20506197.47747
 04  2 13  4 20 14.9920000  0  6  7  8 11 20 28 31
 -12449793.38706  20777417.46106  -9681703.98347  20777419.08647
  -5872662.90606  20178387.71106  -4565383.35947  20178389.46947
 -10698464.27007  18214451.39107  -8325406.52148  18214449.31648
 -20048994.39507  19768115.71107 -15603451.21447  19768114.23447
 -27011744.30507  18573569.57807 -21030926.08448  18573567.44148
   -529791.26606  20507150.01606   -414022.08647  20507150.10647
 04  2 13  4 20 29.9920000  0  6  7  8 11 20 28 31
 -12517388.12506  20764554.51606  -9734375.13747  20764555.76647
  -5866462.16006  20179568.45306  -4560551.67746  20179569.64846
 -10708063.52007  18212624.94507  -8332886.46648  18212622.84448
 -20122855.96907  19754060.39107 -15661005.65747  19754059.04347
 -27072953.30107  18561921.71107 -21078621.40148  18561920.13748
   -524757.43406  20508108.03906   -410099.65647  20508107.94147
 04  2 13  4 20 44.9920000  0  6  7  8 11 20 28 31
 -12584974.39506  20751693.19506  -9787039.74647  20751693.95747
  -5860180.99606  20180763.69506  -4555657.30147  20180764.46947
 -10717578.57007  18210814.18807  -8340300.80448  18210811.94548
 -20196630.16007  19740021.67207 -15718492.01747  19740019.62547
 -27134056.48407  18550294.25807 -21126234.27248  18550292.24648
   -519693.85506  20509071.50006   -406154.07947  20509071.77047
 04  2 13  4 20 59.9920000  0  6  7  8 11 20 28 31
 -12652551.71506  20738834.15606  -9839697.37547  20738834.72347
  -5853819.52006  20181974.20306  -4550700.36947  20181974.67647
 -10727009.20707  18209019.39807  -8347649.37348  18209017.78948
 -20270316.09807  19725999.59407 -15775909.59848  19725998.18848
 -27195052.98407  18538686.88307 -21173763.99748  18538685.18848
   -514600.01206  20510040.69506   -402184.85747  20510040.54747
 04  2 13  4 21 14.9920000  0  6  7  8 11 20 28 31
 -12720120.46906  20725976.40606  -9892348.30447  20725976.76247
  -5847378.49606  20183199.74206  -4545681.44547  20183200.59847
 -10736356.22307  18207240.93807  -8354932.77548  18207238.72348
 -20343913.72707  19711994.75007 -15833258.39347  19711992.96147
 -27255943.01207  18527099.92207 -21221210.75748  18527097.81348
   -509476.41005  20511016.14105   -398192.47847  20511015.74247
 04  2 13  4 21 29.9920000  0  6  7  8 11 20 28 31
 -12787680.56306  20713120.06306  -9944992.52247  20713120.82047
  -5840858.37505  20184440.98405  -4540600.88146  20184441.38346
 -10745619.80107  18205477.99207  -8362151.15448  18205475.86348
 -20417422.82807  19698006.02307 -15890538.15747  19698005.08247
 -27316726.25007  18515532.99207 -21268574.30648  18515531.22348
   -504323.05105  20511996.51605   -394176.90547  20511996.59447
 04  2 13  4 21 44.9920000  0  6  7  8 11 20 28 31
 -12855232.75406  20700265.74206  -9997630.58847  20700265.62547
  -5834260.16805  20185696.63305  -4535459.45246  20185697.07446
 -10754800.87107  18203730.78107  -8369305.25748  18203728.85248
 -20490843.71907  19684034.80507 -15947749.23247  19684033.61747
 -27377403.23007  18503986.96107 -21315855.06748  18503984.87148
   -499140.76605  20512982.25005   -390138.81147  20512982.99647
 04  2 13  4 21 59.9920000  0  6  7  8 11 20 28 31
 -12922776.64106  20687412.39806 -10050262.14847  20687412.73847
  -5827583.87105  20186966.67205  -4530257.21946  20186967.77346
 -10763899.18807  18201999.50807  -8376394.86748  18201996.87148
 -20564175.62907  19670079.94507 -16004890.95147  19670078.98847
 -27437973.23407  18492460.66407 -21363052.46948  18492459.20348
   -493929.18405  20513973.84405   -386077.84647  20513974.71947
 04  2 13  4 22 14.9920000  0  6  7  8 11 20 28 31
 -12990312.00406  20674560.20306 -10102887.06347  20674561.31347
  -5820829.96904  20188252.10204  -4524994.50246  20188253.20746
 -10772914.98807  18200283.68807  -8383420.18248  18200281.60648
 -20637418.10207  19656142.10907 -16061962.97747  19656141.74247
 -27498435.82407  18480954.78907 -21410166.17048  18480952.75448
   -488688.21905  20514971.91405   -381994.00747  20514972.23847
 04  2 13  4 22 29.9920000  0  6  7  8 11 20 28 31
 -13057839.33606  20661710.57006 -10155505.71647  20661711.06347
  -5813999.21503  20189551.07003  -4519671.85946  20189553.30146
 -10781848.89507  18198583.82807  -8390381.66048  18198581.47748
 -20710571.27707  19642221.82807 -16118965.43047  19642220.56647
 -27558791.21107  18469469.40607 -21457196.32348  18469467.62548
   -483418.39506  20515973.91406   -377887.68547  20515974.94947
 04  2 13  4 22 44.9920000  0  6  7  8 11 20 28 31
 -13125358.35906  20648861.82006 -10208117.92847  20648862.68847
  -5807091.89101  20190863.19501  -4514289.58746  20190868.30146
 -10790700.78907  18196899.43807  -8397279.26848  18196897.32048
 -20783634.46907  19628317.97707 -16175897.77047  19628317.92647
 -27619038.82007  18458004.81307 -21504142.53248  18458002.94548
   -478119.46506  20516983.15606   -373758.70347  20516983.20347
 04  2 13  4 22 59.9920000  0  6  7  8 11 20 28 31
 -13192869.40206  20636014.78906 -10260723.91247  20636015.85947
  -5800108.73801  20192191.89101  -4508848.22645  20192196.89145
 -10799471.55907  18195230.42207  -8404113.64248  18195228.41848
 -20856607.75007  19614431.98407 -16232760.03948  19614431.22348
 -27679178.86707  18446560.24207 -21551004.89948  18446559.27048
   -472791.87906  20517996.48406   -369607.36847  20517997.17647
 04  2 13  4 23 14.9920000  0  6  7  8 11 20 28 31
 -13260371.53506  20623169.14806 -10313322.93047  20623170.32447
  -5793049.34801  20193538.36701  -4503347.43445  20193541.04345
 -10808160.27707  18193577.07007  -8410884.08548  18193575.59848
 -20929489.71907  19600562.89807 -16289551.15847  19600561.63347
 -27739210.00407  18435136.71107 -21597782.39348  18435135.41448
   -467434.63305  20519015.48405   -365432.89747  20519016.32447
 04  2 13  4 23 29.9920000  0  6  7  8 11 20 28 31
 -13327865.80106  20610325.43806 -10365915.83747  20610326.64847
  -5785915.02003  20194895.15603  -4497788.29445  20194898.15245
 -10816768.44907  18191939.07007  -8417591.74948  18191937.32848
 -21002281.19907  19586711.54707 -16346271.79147  19586710.04347
 -27799133.15607  18423733.76607 -21644475.73048  18423732.47748
   -462049.07806  20520040.98406   -361236.42447  20520041.05547
 04  2 13  4 23 44.9920000  0  6  7  8 11 20 28 31
 -13395351.83206  20597482.91406 -10418502.32147  20597484.58247
  -5778705.85203  20196267.57003  -4492170.78646  20196270.39546
 -10825295.89507  18190316.50807  -8424236.54848  18190314.05148
 -21074981.49207  19572876.66407 -16402921.34947  19572875.38747
 -27858947.63707  18412351.53907 -21691084.43348  18412350.00448
   -456634.77306  20521071.47706   -357017.51847  20521070.48147
 04  2 13  4 23 59.9920000  0  6  7  8 11 20 28 31
 -13462828.81306  20584642.33606 -10471081.72747  20584643.70747
  -5771421.71102  20197654.28902  -4486494.94146  20197656.36346
 -10833742.12107  18188708.92207  -8430818.02048  18188706.72748
 -21147589.47707  19559059.65607 -16459498.94248  19559058.37148
 -27918652.49207  18400990.14107 -21737607.67948  18400988.43048
   -451191.12506  20522107.23406   -352775.76147  20522107.14847
 04  2 13  4 24 14.9920000  0  6  7  8 11 20 28 31
 -13530297.31306  20571803.96106 -10523654.54847  20571805.02347
  -5764063.57405  20199054.47705  -4480761.35146  20199056.77046
 -10842107.85907  18187117.00807  -8437336.78448  18187114.84848
 -21220105.41007  19545260.64107 -16516004.84648  19545258.46148
 -27978247.90607  18389649.06307 -21784045.66248  18389647.76648
   -445718.59406  20523148.75006   -348511.48647  20523148.31347
 04  2 13  4 24 29.9910000  0  6  7  8 11 20 28 31
 -13597752.20706  20558967.87006 -10576216.76447  20558969.28447
  -5756631.59804  20200469.68304  -4474970.22946  20200470.75746
 -10850392.16407  18185540.46407  -8443792.10048  18185538.61248
 -21292523.40207  19531480.44007 -16572434.42547  19531478.07347
 -28037729.15607  18378330.44007 -21830394.67848  18378328.53848
   -440217.08606  20524196.06506   -344224.59847  20524194.95247
 04  2 13  4 24 44.9910000  0  6  7  8 11 20 28 31
 -13665203.82805  20546131.78405 -10628776.44747  20546133.24547
  -5749126.66005  20201897.01105  -4469122.33746  20201898.39846
 -10858597.87907  18183978.76907  -8450186.16848  18183977.22648
 -21364854.21507  19517715.98007 -16628796.09247  19517713.75347
 -28097105.22307  18367031.79207 -21876661.75048  18367029.92548
   -434687.22306  20525247.84706   -339915.68747  20525247.15547
 04  2 13  4 24 59.9910000  0  6  7  8 11 20 28 31
 -13732646.54306  20533297.60506 -10681329.17447  20533299.60147
  -5741548.63703  20203338.46403  -4463217.39946  20203341.17946
 -10866723.57807  18182432.85507  -8456517.88848  18182430.55448
 -21437091.64107  19503969.42507 -16685084.96447  19503967.55447
 -28156370.77707  18355753.84707 -21922842.68448  18355751.87448
   -429128.42606  20526306.40106   -335584.16847  20526305.45647
 04  2 13  4 25 14.9910000  0  6  7  8 11 20 28 31
 -13800080.22706  20520465.61206 -10733874.83747  20520467.21447
  -5733897.77303  20204794.77603  -4457255.68146  20204796.40146
 -10874769.27307  18180901.44007  -8462787.27548  18180899.49548
 -21509235.03107  19490241.22207 -16741300.57648  19490239.19048
 -28215525.36707  18344497.21407 -21968937.17448  18344495.76548
   -423540.46506  20527369.48006   -331229.96647  20527369.09347
 04  2 13  4 25 29.9910000  0  6  7  8 11 20 28 31
 -13867505.38306  20507634.67506 -10786413.91147  20507636.93747
  -5726175.11304  20206263.92504  -4451238.11946  20206266.12846
 -10882735.72707  18179385.64407  -8468994.92648  18179383.86248
 -21581284.63307  19476530.15107 -16797443.10047  19476529.13647
 -28274569.25807  18333261.31507 -22014945.39348  18333260.00348
   -417924.02306  20528438.90906   -326853.57247  20528437.12847
 04  2 13  4 25 44.9910000  0  6  7  8 11 20 28 31
 -13934921.71506  20494806.03406 -10838946.09747  20494807.80447
  -5718380.72505  20207748.12005  -4445164.55846  20207749.39846
 -10890623.06607  18177884.73707  -8475140.92248  18177882.78848
 -21653239.97307  19462837.67507 -16853512.18348  19462836.50748
 -28333502.07407  18322046.64407 -22060867.07648  18322045.11648
   -412278.94506  20529511.96406   -322454.83547  20529511.03047
 04  2 13  4 25 59.9910000  0  6  7  8 11 20 28 31
 -14002328.78106  20481979.23706 -10891471.04947  20481981.01147
  -5710514.53505  20209245.26905  -4439035.13546  20209246.64846
 -10898431.04707  18176399.05007  -8481225.06548  18176397.06548
 -21725100.09407  19449163.35507 -16909507.05648  19449161.90148
 -28392322.89807  18310853.87007 -22106701.47648  18310852.39848
   -406604.70706  20530592.23706   -318033.41147  20530591.14047
 04  2 13  4 26 14.9910000  0  6  7  8 11 20 28 31
 -14069727.11306  20469154.17506 -10943989.19647  20469155.21847
  -5702577.75005  20210755.33905  -4432850.63046  20210757.12846
 -10906160.58207  18174928.39407  -8487248.10248  18174926.37448
 -21796865.27007  19435506.37807 -16965427.96448  19435505.48348
 -28451032.18407  18299681.82307 -22152448.97448  18299680.09348
   -400901.96906  20531676.87806   -313589.73047  20531677.06247
 04  2 13  4 26 29.9910000  0  6  7  8 11 20 28 31
 -14137117.45306  20456329.80806 -10996501.13447  20456330.61647
  -5694571.55105  20212278.54205  -4426612.08846  20212280.72246
 -10913812.59807  18173472.11207  -8493210.72748  18173470.13648
 -21868535.96107  19421868.14407 -17021275.23448  19421866.74548
 -28509630.46907  18288530.80007 -22198109.96848  18288529.30848
   -395171.59806  20532767.30006   -309124.56747  20532766.98347
 04  2 13  4 26 44.9910000  0  6  7  8 11 20 28 31
 -14204498.94906  20443507.63606 -11049006.18647  20443507.43347
  -5686495.53105  20213815.17505  -4420319.14146  20213817.17546
 -10921386.54707  18172030.94807  -8499112.52148  18172028.78448
 -21940111.09407  19408248.15107 -17077048.04848  19408246.79648
 -28568116.65607  18277401.40107 -22243683.61848  18277399.51148
   -389412.87906  20533863.29206   -304637.30947  20533862.85547
 04  2 13  4 26 59.9910000  0  6  7  8 11 20 28 31
 -14271871.18806  20430687.36206 -11101504.00547  20430687.30047
  -5678349.78905  20215366.25305  -4413971.80846  20215367.70246
 -10928882.24207  18170604.47207  -8504953.32448  18170602.47248
 -22011589.89107  19394645.73007 -17132745.78448  19394645.21848
 -28626490.03107  18266293.33107 -22289169.35948  18266291.76548
   -383625.48806  20534965.08106   -300127.68147  20534964.12847
 04  2 13  4 27 14.9910000  0  6  7  8 11 20 28 31
 -14339234.87106  20417868.57306 -11153995.16247  20417867.61247
  -5670135.14804  20216929.23004  -4407570.87946  20216931.78846
 -10936300.66407  18169192.69007  -8510733.92848  18169191.33148
 -22082972.56607  19381062.48707 -17188368.61248  19381060.43748
 -28684751.11707  18255206.55007 -22334567.59948  18255204.66348
   -377809.95706  20536071.57306   -295596.15647  20536071.08947
 04  2 13  4 27 29.9910000  0  6  7  8 11 20 28 31
 -14406589.09806  20405051.37006 -11206478.96447  20405050.21847
  -5661851.56604  20218505.49504  -4401116.22446  20218507.38646
 -10943641.19907  18167795.81507  -8516453.82548  18167794.16748
 -22154258.00807  19367496.83107 -17243915.69347  19367495.31947
 -28742898.82807  18244141.55807 -22379877.50048  18244139.48048
   -371965.65206  20537184.15906   -291042.19547  20537183.30447
 04  2 13  4 27 44.9910000  0  6  7  8 11 20 28 31
 -14473934.44506  20392236.01906 -11258955.84247  20392234.60147
  -5653499.93003  20220093.88603  -4394608.52745  20220095.68745
 -10950904.76207  18166413.50307  -8522113.78048  18166412.00348
 -22225446.56307  19353950.12007 -17299387.29448  19353948.27348
 -28800933.45707  18233097.80007 -22425099.28948  18233095.60848
   -366093.19906  20538300.99506   -286466.32947  20538300.46447
 04  2 13  4 27 59.9910000  0  6  7  8 11 20 28 31
 -14541269.98806  20379422.62806 -11311425.07647  20379421.24947
  -5645079.71904  20221696.69004  -4388047.39145  20221698.49545
 -10958090.63307  18165045.97207  -8527713.14748  18165044.00348
 -22296536.87107  19340422.46407 -17354782.31848  19340420.74148
 -28858853.81307  18222075.42507 -22470232.02248  18222073.52648
   -360191.72706  20539424.45606   -281867.81847  20539423.59747
 04  2 13  4 28 14.9910000  0  6  7  8 11 20 28 31
 -14608597.83206  20366610.80006 -11363888.31647  20366609.39847
  -5636593.55104  20223311.55004  -4381434.88745  20223313.86245
 -10965201.16007  18163693.15907  -8533253.83448  18163691.17148
 -22367530.73807  19326912.64407 -17410102.19548  19326911.58948
 -28916661.72307  18211074.93307 -22515277.13448  18211073.25748
   -354263.43006  20540552.98006   -277248.38547  20540552.23747
 04  2 13  4 28 29.9910000  0  6  7  8 11 20 28 31
 -14675916.35506  20353799.93306 -11416344.26147  20353799.88247
  -5628040.31305  20224940.21405  -4374770.02045  20224940.33145
 -10972235.14107  18162354.69807  -8538734.87548  18162352.56248
 -22438426.30107  19313421.35507 -17465345.47248  19313420.80448
 -28974355.44507  18200096.29207 -22560233.29448  18200094.73348
   -348306.80906  20541686.35506   -272606.90747  20541686.02347
 04  2 13  4 28 44.9910000  0  6  7  8 11 20 28 31
 -14743225.48806  20340991.75306 -11468792.91647  20340991.56947
  -5619420.33605  20226580.12805  -4368053.22345  20226580.48745
 -10979192.59007  18161030.98707  -8544156.28948  18161028.48348
 -22509223.02707  19299948.91707 -17520511.72248  19299948.40148
 -29031934.60207  18189139.12807 -22605100.15848  18189137.92148
   -342321.75006  20542825.40906   -267943.30447  20542825.53047
 04  2 13  4 28 59.9910000  0  6  7  8 11 20 28 31
 -14810526.10206  20328184.56506 -11521234.92047  20328183.97647
  -5610735.10205  20228232.49505  -4361285.55545  20228233.98345
 -10986074.73807  18159721.26907  -8549519.01348  18159719.31548
 -22579921.69107  19286495.76107 -17575601.58548  19286495.47648
 -29089399.80507  18178204.01907 -22649878.23848  18178202.87848
   -336309.26606  20543969.05006   -263258.28447  20543969.31947
 04  2 13  4 29 14.9910000  0  6  7  8 11 20 28 31
 -14877817.16806  20315379.32306 -11573669.49947  20315379.81947
  -5601983.81305  20229899.08105  -4354466.35545  20229900.22645
 -10992880.86307  18158426.44807  -8554822.50548  18158423.78848
 -22650520.92607  19273061.29207 -17630613.96048  19273061.17548
 -29146749.93007  18167290.43307 -22694566.63748  18167289.16348
   -330268.53106  20545118.30806   -258551.24447  20545119.46047
 04  2 13  4 29 29.9910000  0  6  7  8 11 20 28 31
 -14945098.55906  20302576.24506 -11626096.50247  20302576.26547
  -5593167.07405  20231576.97205  -4347596.27045  20231577.85545
 -10999611.13707  18157145.52607  -8560066.89648  18157143.48748
 -22721020.34807  19259645.58107 -17685548.56548  19259645.34748
 -29203984.67207  18156398.97207 -22739165.14048  18156397.52648
   -324199.39506  20546273.91706   -253822.11047  20546275.13247
 04  2 13  4 29 44.9910000  0  6  7  8 11 20 28 31
 -15012370.68006  20289775.00306 -11678516.31947  20289774.42947
  -5584285.46905  20233267.48705  -4340675.63345  20233268.12445
 -11006266.09407  18155878.80007  -8565252.59148  18155877.10848
 -22791419.80107  19246248.87007 -17740405.26748  19246248.75348
 -29261104.00407  18145530.12007 -22783673.70648  18145527.89448
   -318102.30106  20547434.49506   -249071.17047  20547435.16747
 04  2 13  4 29 59.9910000  0  6  7  8 11 20 28 31
 -15079634.07006  20276974.10506 -11730929.33147  20276974.57347
  -5575340.07005  20234969.65105         0.00000         0.00000
 -11012846.64807  18154626.48007  -8570380.30448  18154624.94448
 -22861719.66007  19232871.63607 -17795184.35148  19232870.87848
 -29318108.23407  18134682.29207 -22828092.57748  18134680.57748
   -311977.96506  20548599.38606   -244298.99247  20548600.45647
 04  2 13  4 30 14.9910000  0  6  7  8 11 20 28 31
 -15146887.95306  20264176.56506 -11783334.89047  20264176.70247
  -5566330.60504  20236683.59704         0.00000         0.00000
 -11019352.23407  18153388.45607  -8575449.60248  18153386.66348
 -22931918.86707  19219512.96407 -17849885.03948  19219512.40548
 -29374996.52307  18123856.76907 -22872421.11948  18123855.30848
   -305825.55106  20549770.30006   -239504.95047  20549771.28847
 04  2 13  4 30 29.9910000  0  6  7  8 11 20 28 31
 -15214132.48406  20251380.57306 -11835733.20547  20251380.24947
  -5557257.74602  20238410.48002         0.00000         0.00000
 -11025783.41007  18152164.69807  -8580460.91848  18152162.80448
 -23002017.39107  19206173.73707 -17904507.23648  19206173.16348
 -29431768.78907  18113052.73707 -22916659.22748  18113051.53448
   -299645.47306  20550946.31506   -234689.33647  20550947.13647
 04  2 13  4 30 44.9910000  0  6  7  8 11 20 28 31
 -15281367.48406  20238586.41706 -11888124.09647  20238585.90947
  -5548121.84011  20240147.05801         0.00000         0.00000
 -11032140.13307  18150954.98007  -8585414.23548  18150953.12448
 -23072014.53107  19192853.62007 -17959050.44548  19192852.99148
 -29488424.57407  18102271.71407 -22960806.60848  18102270.62448
   -293437.50006  20552128.15106   -229852.02347  20552128.57347
 04  2 13  4 30 59.9910000  0  6  7  8 11 20 28 31
 -15348592.74606  20225793.49506 -11940507.37647  20225793.83947
  -5538923.25011  20241897.76101         0.00000         0.00000
 -11038422.65607  18149760.05007  -8590309.72448  18149757.19848
 -23141910.00007  19179552.50307 -18013514.41448  19179552.35148
 -29544963.59007  18091512.73707 -23004862.98048  18091511.42948
   -287201.48406  20553314.89406   -224992.81747  20553315.27347
 04  2 13  4 31 14.9910000  0  5  7 11 20 28 31
 -15415808.75406  20213002.65106 -11992883.44847  20213002.76147
 -11044631.68807  18148578.21407  -8595147.93648  18148575.80448
 -23211703.84807  19166271.58107 -18067899.22148  19166270.61248
 -29601385.88307  18080776.17507 -23048828.39848  18080774.73348
   -280938.09406  20554506.39406   -220112.27947  20554506.23347
 04  2 13  4 31 29.9910000  0  5  7 11 20 28 31
 -15483014.89806  20200213.08106 -12045251.84547  20200213.83547
 -11050766.62907  18147410.96407  -8599928.42448  18147408.46048
 -23281395.14507  19153009.30007 -18122204.10648  19153009.07748
 -29657690.75407  18070061.73707 -23092702.32848  18070060.12048
   -274646.73806  20555704.05006   -215209.97447  20555703.63647
 04  2 13  4 31 44.9910000  0  6  7  8 11 20 28 31
 -15550211.62506  20187426.30806 -12097612.91247  20187426.75347
  -5510949.15212  20247221.51902         0.00000         0.00000
 -11056828.56307  18146257.26907  -8604652.02648  18146254.87048
 -23350984.12107  19139767.56507 -18176429.29448  19139766.76948
 -29713878.49207  18059369.75307 -23136484.99748  18059368.03848
   -268328.05106  20556905.87806   -210286.34847  20556905.92947
 04  2 13  4 31 59.9910000  0  6  7  8 11 20 28 31
 -15617397.82806  20174641.88606 -12149965.76347  20174641.40547
  -5501503.51601  20249015.51901         0.00000         0.00000
 -11062816.54307  18145118.01907  -8609317.99748  18145115.73748
 -23420469.24207  19126544.76907 -18230573.51348  19126544.02348
 -29769947.60507  18048700.10507 -23180175.20848  18048698.44848
   -261980.83605  20558113.65905   -205340.50847  20558114.04647
 04  2 13  4 32 14.9910000  0  6  7  8 11 20 28 31
 -15684574.96106  20161857.72206 -12202311.54947  20161857.81547
  -5491998.19511  20250825.19801         0.00000         0.00000
 -11068732.43807  18143992.44807  -8613927.80848  18143990.35848
 -23489851.71107  19113341.73007 -18284637.76548  19113340.99548
 -29825899.49607  18038053.07307 -23223774.08048  18038051.10148
   -255606.75806  20559326.36206   -200373.70747  20559326.55447
 04  2 13  4 32 29.9910000  0  6  7  8 11 20 28 31
 -15751742.05906  20149076.61206 -12254649.53047  20149076.55447
         0.00000  20252644.24501         0.00000         0.00000
 -11074575.57007  18142880.07307  -8618480.90548  18142878.20648
 -23559130.30907  19100158.28407 -18338621.08448  19100158.39848
 -29881733.02707  18027428.42507 -23267280.72148  18027426.37848
   -249204.99206  20560544.61206   -195385.38647  20560544.41347
 04  2 13  4 32 44.9910000  0  6  7  8 11 20 28 31
 -15818898.27306  20136297.07306 -12306979.01047  20136296.85147
  -5472806.05111  20254478.76101         0.00000         0.00000
 -11080345.21507  18141782.21407  -8622976.75848  18141780.26548
 -23628304.00407  19086994.99507 -18392522.65748  19086994.38648
 -29937447.10507  18016826.17507 -23310694.28948  18016824.17148
   -242774.66805  20561768.48705   -190374.81247  20561768.27347
 04  2 13  4 32 59.9910000  0  6  7  8 11 20 28 31
 -15886045.26606  20123519.75306 -12359301.30047  20123519.40547
         0.00000  20256319.21401         0.00000         0.00000
 -11086043.18807  18140697.97207  -8627416.74848  18140696.07748
 -23697374.07407  19073851.23007 -18446343.48548  19073850.91348
 -29993043.06607  18006246.83907 -23354015.80548  18006244.48048
   -236317.58206  20562998.00306   -185343.31647  20562996.95247
 04  2 13  4 33 14.9910000  0  6  7  8 11 20 28 31
 -15953182.82406  20110743.21406 -12411616.26147  20110743.89447
  -5453377.78101  20258173.82301         0.00000         0.00000
 -11091669.56307  18139627.12007  -8631800.94448  18139625.36648
 -23766339.99207  19060727.92507 -18500083.12648  19060727.37048
 -30048520.55507  17995690.03407 -23397245.00948  17995687.45648
   -229833.55505  20564231.06505   -180290.89547  20564230.49547
 04  2 13  4 33 29.9910000  0  6  7  8 11 20 28 31
 -16020309.45706  20097969.52606 -12463922.68847  20097969.81547
  -5443575.04301  20260039.06501         0.00000         0.00000
 -11097223.37107  18138570.19007  -8636128.59948  18138568.60148
 -23835200.01607  19047624.11207 -18553740.27448  19047623.92148
 -30103877.80107  17985155.79207 -23440380.53948  17985153.19848
   -223321.15205  20565470.92505   -175216.31747  20565470.20247
 04  2 13  4 33 44.9910000  0  6  7  8 11 20 28 31
 -16087426.53906  20085197.73706 -12516221.68547  20085197.98347
  -5433714.90201  20261916.68301         0.00000         0.00000
 -11102706.22307  18137527.09707  -8640400.97348  18137525.20648
 -23903955.18807  19034540.62807 -18607315.72648  19034540.23348
 -30159116.04307  17974644.42507 -23483423.33548  17974641.43348
   -216781.92205  20566715.23705   -170120.89147  20566714.67547
 04  2 13  4 33 59.9910000  0  6  7  8 11 20 28 31
 -16154534.25006  20072427.75306 -12568513.36947  20072427.34347
  -5423797.92213  20263804.55003         0.00000         0.00000
 -11108118.55508  18136497.32308  -8644618.39148  18136495.51148
 -23972605.43407  19021476.53407 -18660809.39948  19021475.80448
 -30214235.21907  17964155.34707 -23526373.33948  17964152.48048
   -210216.16806  20567964.30806   -165004.74347  20567964.19447
 04  2 13  4 34 14.9910000  0  6  7  8 11 20 28 31
 -16221631.45306  20059659.52606 -12620796.89347  20059659.62047
  -5413823.48402  20265702.88602  -4207848.44155  20265704.86245
 -11113459.34807  18135480.93307  -8648780.04548  18135478.90148
 -24041149.23007  19008433.32307 -18714220.14748  19008432.46848
 -30269233.86707  17953689.74507 -23569229.42448  17953686.50748
   -203622.68405  20569218.79205   -159867.01947  20569218.66347
 04  2 13  4 34 29.9910000  0  6  7  8 11 20 28 31
 -16288718.49606  20046893.07306 -12673072.47747  20046893.68747
  -5403792.22702  20267612.01102  -4200031.97045  20267614.11245
 -11118729.33607  18134478.32307  -8652886.55048  18134476.19448
 -24109586.78507  18995409.73007 -18767548.10448  18995409.11248
 -30324112.31607  17943246.58107 -23611991.85548  17943243.79248
   -197001.99205  20570478.34705   -154708.05947  20570479.06547
 04  2 13  4 34 44.9910000  0  6  7  8 11 20 28 31
 -16355795.65206  20034128.76106 -12725340.36747  20034129.53847
  -5393705.30102  20269531.73702  -4192172.07845  20269533.75745
 -11123929.11707  18133488.74507  -8656938.35348  18133486.69048
 -24177917.94907  18982406.74507 -18820793.15448  18982405.87848
 -30378870.57007  17932826.33907 -23654660.62248  17932824.22648
   -190354.36306  20571743.80806   -149528.10847  20571743.97247
 04  2 13  4 34 59.9910000  0  6  7  8 11 20 28 31
 -16422862.44906  20021365.73006 -12777600.14647  20021366.90547
  -5383562.39503  20271461.71403  -4184268.54745  20271463.64845
 -11129058.54307  18132512.44807  -8660935.31848  18132510.23048
 -24246142.23407  18969424.20607 -18873954.90748  18969423.35848
 -30433508.10207  17922429.30007 -23697235.31448  17922426.54648
   -183679.67606  20573013.94006   -144327.10747  20573014.97647
 04  2 13  4 35 14.9910000  0  6  7  8 11 20 28 31
 -16489919.01206  20008605.89406 -12829851.98047  20008607.01547
  -5373364.08203  20273402.44803  -4176321.87145  20273403.70645
 -11134117.89807  18131550.19007  -8664877.68648  18131547.51948
 -24314259.21107  18956461.89407 -18927033.06948  18956460.86248
 -30488024.73807  17912054.94007 -23739715.80548  17912052.74948
   -176977.88705  20574289.01905   -139104.94846  20574290.73346
 04  2 13  4 35 29.9910000  0  6  7  8 11 20 28 31
 -16556965.94106  19995847.23006 -12882096.32047  19995848.10147
  -5363111.56303  20275353.20603  -4168332.95345  20275355.10845
 -11139108.04307  18130600.30807  -8668766.12748  18130598.32748
 -24382269.32407  18943520.29207 -18980027.95348  18943518.65948
 -30542420.91807  17901703.62807 -23782102.44248  17901701.34748
   -170249.73406  20575569.63606   -133862.28347  20575571.05847
 04  2 13  4 35 44.9910000  0  6  7  8 11 20 28 31
 -16624002.71506  19983090.66706 -12934332.71947  19983090.88247
  -5352804.87903  20277314.45603  -4160301.84445  20277316.06545
 -11144028.83607  18129664.11207  -8672600.52448  18129661.87848
 -24450171.84007  18930598.87807 -19032938.99348  18930597.46848
 -30596695.92607  17891375.69007 -23824394.64948  17891373.57348
   -163494.94905  20576854.81505   -128598.85547  20576856.16747
 04  2 13  4 35 59.9910000  0  6  7  8 11 20 28 31
 -16691029.06606  19970335.73006 -12986561.04047  19970336.59347
  -5342444.14104  20279287.00304  -4152228.64445  20279288.62845
 -11148880.41007  18128740.79207  -8676380.98348  18128738.31948
 -24517966.10207  18917698.02607 -19085765.67648  18917697.05448
 -30650849.07807  17881070.58907 -23866591.91648  17881068.68748
   -156713.21905  20578145.71405   -123314.45447  20578146.98747
 04  2 13  4 36 14.9900000  0  6  7  8 11 20 28 31
 -16758040.74206  19957583.59206 -13038777.89747  19957584.50647
  -5332030.64804  20281268.68604  -4144114.24245  20281271.57245
 -11153662.91807  18127830.56107  -8680107.63048  18127828.43248
 -24585647.58207  18904818.54507 -19138504.45748  18904818.01448
 -30704877.08607  17870789.34207 -23908691.65648  17870787.06548
   -149905.28505  20579441.67805   -118009.61147  20579442.69047
 04  2 13  4 36 29.9900000  0  6  7  8 11 20 28 31
 -16825045.66406  19944833.32606 -13090989.50047  19944834.29947
  -5321562.61303  20283260.02903  -4135957.29945  20283262.94045
 -11158376.18007  18126933.51407  -8683780.32248  18126931.16648
 -24653224.06607  18891959.10807 -19191161.45148  18891959.02248
 -30758785.81307  17860530.87307 -23950698.46948  17860528.95148
   -143069.31605  20580742.55305   -112682.96147  20580743.03747
 04  2 13  4 36 44.9900000  0  6  7  8 11 20 28 31
 -16892039.74206  19932084.90406 -13143192.64547  19932085.34247
  -5311041.47305  20285262.64705  -4127759.04846  20285265.11946
 -11163020.68407  18126049.88907  -8687399.42248  18126047.76848
 -24720691.08207  18879120.45907 -19243733.14048  18879120.11948
 -30812571.93007  17850295.43607 -23992609.72448  17850293.72948
   -136206.34005  20582048.40405   -107335.20347  20582050.09647
 04  2 13  4 36 59.9900000  0  6  7  8 11 20 28 31
 -16959023.45706  19919338.10006 -13195387.72647  19919339.30747
  -5300468.23005  20287275.14705  -4119520.27246  20287277.40846
 -11167596.95307  18125179.06807  -8690965.35848  18125176.68648
 -24788048.82007  18866302.35807 -19296219.66548  18866301.95148
 -30866235.64507  17840083.76407 -24034425.61648  17840081.95148
   -129316.81305  20583359.37305   -101966.79047  20583361.56847
 04  2 13  4 37 14.9900000  0  6  7  8 11 20 28 31
 -17025996.77306  19906593.28706 -13247574.70547  19906594.24047
  -5289843.39804  20289296.08404  -4111241.30545  20289298.48645
 -11172105.42207  18124321.18607  -8694478.47348  18124318.80348
 -24855297.02707  18853505.78707 -19348620.83848  18853504.94348
 -30919776.76607  17829895.00607 -24076145.96348  17829893.16648
   -122400.85905  20584675.99005    -96577.78947  20584677.40047
 04  2 13  4 37 29.9900000  0  6  7  8 11 20 28 31
 -17092959.11706  19893851.13106 -13299753.12847  19893852.33047
  -5279166.68804  20291328.23304  -4102921.84845  20291330.12345
 -11176545.58207  18123476.17807  -8697938.35748  18123474.04148
 -24922434.85907  18840729.67807 -19400936.04048  18840728.72948
 -30973194.44107  17819730.31107 -24117770.11748  17819728.22148
   -115457.93005  20585997.35805    -91167.77347  20585999.04547
 04  2 13  4 37 44.9900000  0  6  7  8 11 20 28 31
 -17159910.77306  19881110.47506 -13351923.21547  19881111.92447
  -5268439.07404  20293369.79504  -4094562.78145  20293371.60445
 -11180918.35507  18122644.23307  -8701345.73248  18122641.97548
 -24989462.28507  18827974.93607 -19453165.19248  18827974.30348
 -31026488.91407  17809588.88107 -24159298.28248  17809586.98348
   -108488.55905  20587323.18605    -85737.15447  20587325.34647
 04  2 13  4 37 59.9900000  0  6  7  8 11 20 28 31
 -17226851.36306  19868372.05306 -13404084.68347  19868372.59247
  -5257660.59803  20295421.13903  -4086163.98045  20295422.80345
 -11185223.34807  18121825.19307  -8704700.26548  18121822.98348
 -25056378.63307  18815241.17007 -19505307.78048  18815240.96348
 -31079659.52707  17799470.67807 -24200729.91948  17799468.26848
   -101492.21905  20588654.41205    -80285.51947  20588656.36547
 04  2 13  4 38 14.9900000  0  6  7  8 11 20 28 31
 -17293780.91006  19855635.76406 -13456237.55247  19855636.63147
  -5246831.81603  20297481.66203  -4077726.03145  20297483.27545
 -11189460.99607  18121018.63907  -8708002.34248  18121016.78348
 -25123183.76607  18802528.26407 -19557363.71448  18802527.63948
 -31132706.20707  17789376.18607 -24242064.99948  17789374.19348
    -94469.21505  20589991.56805    -74813.11747  20589993.34247
 04  2 13  4 38 29.9900000  0  6  7  8 11 20 28 31
 -17360699.48806  19842901.50606 -13508381.87147  19842902.45547
  -5235953.17204  20299552.38104  -4069249.26645  20299553.60445
 -11193631.67207  18120224.75607  -8711252.23848  18120223.32648
 -25189877.51207  18789836.96707 -19609332.86748  18789836.11548
 -31185628.77007  17779305.28707 -24283303.36348  17779303.34248
    -87419.66805  20591332.80305    -69320.01747  20591335.39747
 04  2 13  4 38 44.9900000  0  6  7  8 11 20 28 31
 -17427607.19506  19830169.42806 -13560517.71847  19830169.69047
  -5225025.48805  20301631.31805  -4060734.14145  20301633.29145
 -11197735.80507  18119443.81107  -8714450.27148  18119441.70148
 -25256459.65207  18777166.83407 -19661215.02248  18777166.27948
 -31238427.22707  17769257.94307 -24324445.00948  17769256.50248
    -80343.78506  20592679.41206    -63806.39447  20592681.56147
 04  2 13  4 38 59.9900000  0  6  7  8 11 20 28 31
 -17494504.04306  19817439.42006 -13612645.09147  19817439.89347
  -5214048.99205  20303720.64705  -4052181.07045  20303722.60045
 -11201773.62908  18118675.64708  -8717596.64348  18118673.71748
 -25322929.89107  18764518.09207 -19713009.99148  18764517.15848
 -31291101.37907  17759234.31807 -24365489.79148  17759232.60048
    -73241.57805  20594031.47505    -58272.25247  20594033.25647
 04  2 13  4 39 14.9900000  0  6  7  8 11 20 28 31
 -17561389.76606  19804710.83406 -13664763.82147  19804711.84247
  -5203024.09405  20305818.71705  -4043590.30346  20305821.33446
 -11205745.18007  18117919.67007  -8720691.37448  18117917.87748
 -25389287.81607  18751890.35807 -19764717.45448  18751889.25648
 -31343650.73007  17749234.41207 -24406437.34348  17749233.19748
    -66112.99205  20595387.40405    -52717.55147  20595390.18247
 04  2 13  4 39 29.9900000  0  6  7  8 11 20 28 31
 -17628263.80906  19791985.52906 -13716873.44247  19791985.94047
  -5191950.43405  20307926.08405  -4034961.50546  20307928.01846
 -11209650.14107  18117176.71707  -8723734.22748  18117174.45548
 -25455532.44107  18739284.38907 -19816336.63948  18739283.29148
 -31396074.48807  17739258.86507 -24447287.02648  17739257.11948
    -58957.41406  20596749.34206    -47141.82347  20596751.58447
 04  2 13  4 39 44.9900000  0  6  7  8 11 20 28 31
 -17695126.72306  19779261.88906 -13768974.38947  19779262.73647
  -5180829.34005  20310042.05305  -4026295.71046  20310044.59646
 -11213489.48807  18116446.49807  -8726725.94448  18116443.99848
 -25521664.27307  18726699.99007 -19867867.90948  18726699.13148
 -31448373.22707  17729306.70107 -24488039.29048  17729305.45948
    -51775.76605  20598115.75605    -41545.79747  20598117.37747
 04  2 13  4 39 59.9900000  0  6  7  8 11 20 28 31
 -17761978.21106  19766540.49806 -13821066.44647  19766540.84247
  -5169660.85904  20312167.25604  -4017593.13546  20312169.51846
 -11217262.98807  18115728.05307  -8729666.33748  18115725.98348
 -25587682.55907  18714137.38907 -19919310.72648  18714136.10848
 -31500546.28907  17719378.38907 -24528693.62248  17719376.68248
    -44567.63306  20599487.50606    -35929.12747  20599489.21347
 04  2 13  4 40 14.9900000  0  6  7  8 11 20 28 31
 -17828818.14106  19753821.54506 -13873149.48047  19753821.36547
  -5158445.29703  20314300.64703  -4008853.75045  20314303.96345
 -11220971.02707  18115022.57607  -8732555.73348  18115020.69748
 -25653586.98007  18701596.42007 -19970664.82248  18701594.97148
 -31552593.40607  17709474.24007 -24569249.81748  17709472.23648
    -37332.94506  20600864.20106    -30291.74747  20600866.09247
 04  2 13  4 40 29.9900000  0  6  7  8 11 20 28 31
 -17895646.79307  19741104.56807 -13925223.74347  19741104.99447
  -5147183.42202  20316443.62302  -4000078.36745  20316447.40845
 -11224613.92207  18114329.69307  -8735394.36948  18114327.56848
 -25719377.48807  18689076.49007 -20021930.14348  18689075.20148
 -31604514.64507  17699593.84207 -24609707.92748  17699592.14748
    -30072.08605  20602245.88105    -24634.02147  20602247.58847
 04  2 13  4 40 44.9900000  0  6  7  8 11 20 28 31
 -17962464.27706  19728389.86506 -13977289.29048  19728389.59248
  -5135876.03502  20318594.61502  -3991267.46545  20318598.97545
 -11228192.27708  18113648.67808  -8738182.70148  18113646.54948
 -25785054.18407  18676578.95107 -20073106.80548  18676577.02948
 -31656310.16807  17689737.56807 -24650068.07448  17689736.08048
    -22785.44505  20603632.50605    -18956.15746  20603633.43246
 04  2 13  4 40 59.9900000  0  6  7  8 11 20 28 31
 -18029270.09006  19715676.36506 -14029345.74647  19715677.46747
  -5124523.07401  20320756.70901  -3982421.06645  20320758.35445
 -11231705.86308  18112980.05308  -8740920.58048  18112977.76048
 -25850616.25407  18664102.83407 -20124194.10748  18664100.83848
 -31707979.02307  17679905.43607 -24690329.51948  17679903.59648
    -15472.56305  20605024.20905    -13257.81947  20605025.51047
 04  2 13  4 41 14.9900000  0  6  7  8 11 20 28 31
 -18096064.45706  19702965.68606 -14081393.27347  19702966.48347
  -5113125.14103  20322925.13903  -3973539.63745  20322927.36145
 -11235155.23008  18112323.67008  -8743608.40948  18112321.94748
 -25916063.55107  18651649.02907 -20175192.00448  18651647.65048
 -31759521.44507  17670096.99007 -24730492.45248  17670094.83448
     -8133.75005  20606420.75605     -7539.29946  20606422.27546
 04  2 13  4 41 29.9900000  0  6  7  8 11 20 28 31
 -18162847.51206  19690257.76406 -14133432.00447  19690258.03747
         0.00000  20325102.18602  -3964623.58655  20325105.69345
 -11238540.82008  18111679.39708  -8746246.55248  18111677.18648
 -25981395.99207  18639216.34207 -20226100.39448  18639214.80348
 -31810937.34007  17660312.83407 -24770556.78248  17660310.73648
      -769.18406  20607822.19306     -1800.74947  20607823.82247
 04  2 13  4 41 44.9900000  0  6  7  8 11 20 28 31
 -18229619.08606  19677551.39706 -14185461.77648  19677551.96348
  -5090196.48404  20327289.73304  -3955673.28945  20327291.55345
 -11241862.68807  18111047.20107  -8748835.00948  18111045.41248
 -26046613.19507  18626806.06107 -20276918.98648  18626803.84248
 -31862226.34407  17650553.13907 -24810522.24248  17650550.63948
      6621.16405  20609228.02205      3957.90646  20609230.09646
 04  2 13  4 41 59.9900000  0  6  7  8 11 20 28 31
 -18296378.08606  19664847.39706 -14237481.74747  19664847.86547
  -5078665.60903  20329483.32603  -3946688.27345  20329486.27245
 -11245119.97307  18110427.19307  -8751373.15748  18110425.38148
 -26111713.82807  18614417.44307 -20327646.74748  18614416.36948
 -31913387.26207  17640817.38907 -24850387.89948  17640814.97548
     14038.28506  20610639.99806      9737.44447  20610640.83047
 04  2 13  4 42 14.9900000  0  6  7  8 11 20 28 31
 -18363125.00006  19652146.13106 -14289492.31347  19652146.14347
  -5067090.98402  20331685.64702  -3937669.08245  20331689.22145
 -11248313.46107  18109819.10807  -8753861.58948  18109817.63948
 -26176697.95707  18602051.36507 -20378283.73548  18602050.38948
 -31964420.42207  17631106.10807 -24890153.99048  17631103.78348
     21481.64806  20612055.70906     15537.44347  20612057.69747
 04  2 13  4 42 29.9900000  0  6  7  8 11 20 28 31
 -18429860.18806  19639446.33406 -14341493.72947  19639446.42847
  -5055473.56603  20333896.07603  -3928616.66045  20333899.61945
 -11251443.80907  18109223.66207  -8756300.84048  18109221.94748
 -26241565.91007  18589707.63907 -20428830.18148  18589706.51048
 -32015326.01607  17621418.95907 -24929820.69248  17621416.74848
     28950.79306  20613477.38106     21357.51147  20613478.96747
 04  2 13  4 42 44.9900000  0  6  7  8 11 20 28 31
 -18496583.81606  19626748.90406 -14393486.13547  19626749.17847
  -5043814.04302  20336115.85802  -3919531.33245  20336117.86945
 -11254511.55907  18108639.73307  -8758691.31048  18108637.64348
 -26306317.62107  18577385.89707 -20479286.06748  18577384.38548
 -32066104.06307  17611756.22507 -24969387.99348  17611753.93248
     36445.34006  20614903.73306     27197.39946  20614905.61146
 04  2 13  4 42 59.9900000  0  6  7  8 11 20 28 31
 -18563296.12106  19614054.14706 -14445469.72547  19614054.55347
  -5032113.30102  20338342.52902  -3910413.89145  20338343.92045
 -11257517.18007  18108067.85007  -8761033.35548  18108065.72948
 -26370953.02007  18565086.46707 -20529651.29648  18565084.81148
 -32116754.70707  17602117.81807 -25008856.03148  17602115.55748
     43965.10206  20616335.31106     33056.89547  20616336.47147
 04  2 13  4 43 14.9900000  0  6  7  8 11 20 28 31
 -18629996.61306  19601361.61506 -14497444.08547  19601361.63547
  -5020370.97302  20340577.35802  -3901264.08645  20340578.02945
 -11260460.51207  18107508.19307  -8763326.87948  18107505.96348
 -26435471.50407  18552808.53707 -20579925.44448  18552807.21348
 -32167277.25407  17592503.42807 -25048224.24748  17592501.37348
     51510.34406  20617771.23306     38936.26247  20617772.19747
 04  2 13  4 43 29.9900000  0  6  7  8 11 20 28 31
 -18696685.12106  19588671.07606 -14549409.14447  19588671.43647
  -5008587.61301  20342818.76401         0.00000         0.00000
 -11263341.66807  18106959.79507  -8765571.96148  18106957.78748
 -26499872.53107  18540553.60007 -20630108.07048  18540551.90048
 -32217671.33607  17582913.87307 -25087492.37448  17582911.97548
     59081.12906  20619211.85806     44835.52747  20619212.40447
 04  2 13  4 43 44.9900000  0  6  7  8 11 20 28 31
 -18763361.64506  19575983.06806 -14601364.85747  19575983.79947
  -4996763.61701  20345069.91201         0.00000         0.00000
 -11266161.00007  18106423.29507  -8767768.85548  18106421.28748
 -26564155.88307  18528320.90407 -20680198.97348  18528319.36948
 -32267936.72307  17573348.92007 -25126660.20248  17573346.90448
     66677.36706  20620656.85006     50754.62047  20620658.45547
 04  2 13  4 43 59.9900000  0  6  7  8 11 20 28 31
 -18830025.98006  19563297.54506 -14653311.02747  19563297.91647
  -4984899.14501  20347328.85801         0.00000         0.00000
 -11268918.61707  18105898.30307  -8769917.64348  18105896.63148
 -26628321.16007  18516110.67007 -20730197.88048  18516108.96348
 -32318073.10507  17563808.61507 -25165727.50948  17563806.05748
     74299.18806  20622107.35806     56693.66346  20622108.44346
 04  2 13  4 44 14.9900000  0  6  7  8 11 20 28 31
 -18896677.74207  19550614.13907 -14705247.46847  19550614.19047
  -4972994.43001  20349592.35001         0.00000         0.00000
 -11271614.25807  18105385.56807  -8772018.16548  18105383.65848
 -26692367.71907  18503922.61507 -20780104.30648  18503921.15848
 -32368080.00807  17554292.44307 -25204693.93748  17554290.20148
     81946.94906  20623562.98306     62652.89347  20623563.96747
 04  2 13  4 44 29.9900000  0  6  7  8 11 20 28 31
 -18963317.04307  19537933.46707 -14757174.18048  19537933.21348
         0.00000  20351866.95101         0.00000         0.00000
 -11274248.53907  18104884.17807  -8774070.87348  18104882.25648
 -26756295.50006  18491757.55306 -20829918.15048  18491756.63548
 -32417957.49607  17544801.18607 -25243559.52348  17544798.95148
     89620.17206  20625022.42806     68631.97046  20625023.04946
 04  2 13  4 44 44.9900000  0  5  7 11 20 28 31
 -19029943.94907  19525254.59207 -14809091.21147  19525254.69747
 -11276821.69507  18104394.73307  -8776075.94348  18104392.88148
 -26820104.18407  18479614.88907 -20879639.18248  18479614.51848
 -32467705.35207  17535334.27207 -25282324.09148  17535332.30748
     97318.96106  20626488.56106     74631.01147  20626488.33047
 04  2 13  4 44 59.9900000  0  5  7 11 20 28 31
 -19096557.85206  19512578.23306 -14860998.11347  19512578.44047
 -11279333.33607  18103916.65407  -8778033.07348  18103915.40448
 -26883793.05107  18467495.27207 -20929266.86548  18467494.95148
 -32517322.87107  17525892.31807 -25320987.09048  17525890.10448
    105043.67206  20627958.02206     80650.21346  20627958.16646
 04  2 13  4 45 14.9900000  0  5  7 11 20 28 31
 -19163159.30107  19499904.80307 -14912895.32547  19499904.43647
 -11281784.49607  18103450.33407  -8779943.08648  18103449.11548
 -26947362.31607  18455398.39707 -20978801.35648  18455398.04548
 -32566810.37507  17516475.24007 -25359548.78448  17516473.14348
    112793.74606  20629432.65406     86689.16946  20629433.85046
 04  2 13  4 45 29.9900000  0  5  7 11 20 28 31
 -19229748.65207  19487233.19307 -14964783.12447  19487232.75247
 -11284175.69507  18102995.07607  -8781806.35548  18102994.43648
 -27010812.27007  18443324.57607 -21028242.87548  18443324.00648
 -32616168.05507  17507083.10807 -25398009.32649  17507080.66249
    120568.66406  20630912.67806     92747.47546  20630912.86146
 04  2 13  4 45 44.9900000  0  6  7  8 11 20 28 31
 -19296325.06307  19474563.82607 -15016660.81147  19474563.48347
     36290.77312  20363341.67802         0.00000         0.00000
 -11286506.45707  18102551.55307  -8783622.53548  18102550.32248
 -27074141.80906  18431273.15406 -21077590.55848  18431272.94048
 -32665395.09807  17497715.26407 -25436368.05648  17497713.24448
    128369.16806  20632397.38106     98825.76446  20632397.39346
 04  2 13  4 45 59.9900000  0  6  7  8 11 20 28 31
 -19362888.95707  19461897.32607 -15068528.78047  19461897.15047
     48462.85201  20365657.67801         0.00000         0.00000
 -11288777.46907  18102119.20907  -8785392.17348  18102117.88948
 -27137351.07006  18419244.78706 -21126844.51248  18419244.24048
 -32714491.75807  17488372.05307 -25474625.18148  17488370.61148
    136194.76206  20633886.34206    104923.58646  20633886.87346
 04  2 13  4 46 14.9900000  0  6  7  8 11 20 28 31
 -19429439.60507  19449233.02207 -15120386.40647  19449233.43247
     60671.82401  20367979.22501         0.00000         0.00000
 -11290988.33607  18101698.56807  -8787114.94648  18101697.11148
 -27200439.08606  18407239.49006 -21176003.98948  18407238.77948
 -32763457.13307  17479054.43607 -25512780.03248  17479052.55748
    144045.95306  20635380.60806    111041.37546  20635381.06546
 04  2 13  4 46 29.9900000  0  6  7  8 11 20 28 31
 -19495977.33607  19436571.57607 -15172233.97348  19436571.42048
     72917.06301  20370310.96701         0.00000         0.00000
 -11293139.59407  18101289.77907  -8788791.27248  18101287.80348
 -27263406.03906  18395257.45906 -21225069.15148  18395256.71748
 -32812291.30107  17469761.46707 -25550832.62248  17469759.74448
    151922.37106  20636879.62306    117178.76546  20636880.27246
 04  2 13  4 46 44.9900000  0  6  7  8 11 20 28 31
 -19562502.23407  19423912.01407 -15224071.53348  19423912.15048
     85197.86301  20372647.80301         0.00000         0.00000
 -11295231.72707  18100891.36507  -8790421.51148  18100889.36548
 -27326251.78506  18383297.89706 -21274039.84348  18383297.57248
 -32860994.31307  17460493.56107 -25588783.02548  17460491.58448
    159823.86706  20638382.55306    123335.73547  20638382.94047
 04  2 13  4 46 59.9900000  0  5  7 11 20 28 31
 -19629013.87507  19411255.71707 -15275898.75847  19411256.01847
 -11297264.59407  18100504.70907  -8792005.56148  18100502.66648
 -27388975.71906  18371362.30306 -21322915.61948  18371361.57648
 -32909565.54707  17451250.92807 -25626630.72148  17451248.90448
    167750.62906  20639891.49006    129512.42846  20639891.99046
 04  2 13  4 47 14.9900000  0  5  7 11 20 28 31
 -19695512.91807  19398600.96707 -15327716.19147  19398601.47547
 -11299238.98407  18100129.05307  -8793544.08548  18100126.89348
 -27451578.25406  18359449.35806 -21371696.80948  18359448.74048
 -32958005.48807  17442032.77207 -25664376.13948  17442030.94048
    175702.02006  20641404.71706    135708.22746  20641405.04946
 04  2 13  4 47 29.9900000  0  5  7 11 20 28 31
 -19761999.00007  19385949.03707 -15379523.49448  19385949.90848
 -11301155.04307  18099764.00607  -8795037.13448  18099761.96748
 -27514058.94906  18347559.64706 -21420383.04848  18347558.63548
 -33006313.82807  17432840.48307 -25702019.01048  17432838.38548
    183678.23006  20642922.04506    141923.37646  20642922.72946
 04  2 13  4 47 44.9900000  0  5  7 11 20 28 31
 -19828472.09807  19373299.59207 -15431320.66248  19373299.94048
 -11303012.91407  18099410.63107  -8796484.82948  18099408.79948
 -27576417.26206  18335693.40406 -21468973.90648  18335692.77248
 -33054490.29707  17423672.45907 -25739559.10448  17423670.83448
    191679.25806  20644444.60806    148157.93046  20644445.08846
 04  2 13  4 47 59.9890000  0  5  7 11 20 28 31
 -19894926.68807  19360653.86807 -15483103.44747  19360653.60347
 -11304811.77307  18099068.90007  -8797886.54948  18099066.60348
 -27638647.96506  18323851.12606 -21517465.35648  18323850.60748
 -33102530.63707  17414531.05607 -25776993.13448  17414529.18948
    199705.36705  20645971.92305    154411.98546  20645972.34146
 04  2 13  4 48 14.9890000  0  6  7  8 11 20 28 31
 -19961372.30907  19348009.31407 -15534879.23147  19348009.59547
     46773.52711  20386806.10301         0.00000         0.00000
 -11306552.87507  18098737.12607  -8799243.27148  18098735.47048
 -27700759.71107  18312031.89207 -21565864.10148  18312030.67748
 -33150441.55907  17405413.97807 -25814326.32548  17405412.45848
    207756.97705  20647504.02505    160685.86046  20647504.90746
 04  2 13  4 48 29.9890000  0  6  7  8 11 20 28 31
 -20027804.66807  19335367.75907 -15586644.67648  19335368.09148
     59291.94101  20389188.77501         0.00000         0.00000
 -11308236.45307  18098416.74307  -8800555.16648  18098415.41548
 -27762748.39806  18300235.65006 -21614166.97248  18300235.07148
 -33198220.04707  17396321.64207 -25851556.30648  17396320.22848
    215833.19905  20649041.47005    166979.03346  20649042.19246
 04  2 13  4 48 44.9890000  0  6  7  8 11 20 28 31
 -20094223.23007  19322728.84507 -15638399.37048  19322729.15048
     71842.98812  20391577.43102         0.00000         0.00000
 -11309862.19107  18098107.61007  -8801821.98348  18098105.96648
 -27824613.25006  18288463.29006 -21662373.32848  18288462.74748
 -33245865.32407  17387255.22007 -25888682.49048  17387253.73948
    223934.57005  20650582.68905    173291.72646  20650584.64246
 04  2 13  4 48 59.9890000  0  6  7  8 11 20 28 31
 -20160628.05107  19310092.58707 -15690143.35548  19310092.26748
     84425.89801  20393971.70401         0.00000         0.00000
 -11311430.55107  18097809.00107  -8803044.09648  18097807.26348
 -27886354.18007  18276714.48507 -21710483.12548  18276713.15048
 -33293377.48807  17378213.96207 -25925704.95448  17378212.25148
    232060.80905  20652128.90705    179623.82146  20652130.66546
 04  2 13  4 49 14.9890000  0  6  7  8 11 20 28 31
 -20227019.08607  19297458.47007 -15741876.63548  19297458.39648
     97040.37902  20396372.78202         0.00000         0.00000
 -11312941.76607  18097521.22807  -8804221.67148  18097519.66948
 -27947970.82007  18264989.39207 -21758496.08348  18264987.61848
 -33340756.22707  17369197.83707 -25962623.45248  17369196.16948
    240211.96906  20653680.72006    185975.30346  20653682.40046
 04  2 13  4 49 29.9890000  0  6  7  8 11 20 28 31
 -20293395.93406  19284827.35306 -15793598.81347  19284827.34547
    109686.40602  20398779.44602         0.00000         0.00000
 -11314395.77307  18097244.64207  -8805354.67048  18097242.86048
 -28009462.64507  18253287.96207 -21806411.76748  18253286.33348
 -33388001.09806  17360207.65706 -25999437.63648  17360206.04448
    248388.29705  20655236.01705    192346.44546  20655238.32946
 04  2 13  4 49 44.9890000  0  6  7  8 11 20 28 31
 -20359759.16006  19272198.56406 -15845310.38447  19272199.09547
    122362.84802  20401191.50902         0.00000         0.00000
 -11315793.49207  18096978.75107  -8806443.81048  18096976.88048
 -28070829.98407  18241609.68907 -21854230.45748  18241608.45048
 -33435112.46506  17351242.75906 -26036147.79448  17351240.97848
    256589.09805  20656797.43105    198736.64146  20656798.85346
 04  2 13  4 49 59.9890000  0  6  7  8 11 20 28 31
 -20426108.53506  19259572.61806 -15897011.18047  19259572.96247
    135069.46101  20403608.77501         0.00000         0.00000
 -11317134.87107  18096723.25107  -8807489.06548  18096721.76348
 -28132072.38307  18229955.57107 -21901951.80248  18229954.18548
 -33482090.05506  17342302.91506 -26072753.71348  17342301.27848
    264814.46906  20658362.14206    205145.98446  20658364.30246
 04  2 13  4 50 14.9890000  0  6  7  8 11 20 28 31
 -20492443.78506  19246949.11806 -15948700.98147  19246949.18947
    147805.85501  20406032.96201         0.00000         0.00000
 -11318419.94107  18096478.99307  -8808490.41648  18096477.53248
 -28193189.40207  18218326.13407 -21949575.44148  18218324.46648
 -33528933.51207  17333389.39207 -26109255.10148  17333387.17748
    273064.51205  20659932.53205    211574.54746  20659933.97046
 04  2 13  4 50 29.9890000  0  6  7  8 11 20 28 31
 -20558764.55506  19234328.96206 -16000379.44547  19234328.70847
    160572.09401  20408462.30601         0.00000         0.00000
 -11319648.57007  18096244.78207  -8809447.78648  18096243.42748
 -28254180.48807  18206719.65007 -21997100.95948  18206718.21248
 -33575642.17207  17324501.13407 -26145651.45648  17324499.02548
    281339.59805  20661507.29805    218022.61246  20661508.79846
 04  2 13  4 50 44.9890000  0  6  7  8 11 20 28 31
 -20625071.29306  19221710.95406 -16052047.01847  19221710.92347
    173367.06301  20410897.07101         0.00000         0.00000
 -11320821.69107  18096022.10307  -8810361.92748  18096020.37648
 -28315045.94107  18195137.08707 -22044528.57548  18195135.41148
 -33622216.54307  17315638.27507 -26181943.17348  17315636.14648
    289639.09806  20663087.06406    224489.69346  20663088.00546
 04  2 13  4 50 59.9890000  0  6  7  8 11 20 28 31
 -20691363.61307  19209096.15007 -16103703.35747  19209097.02547
    186190.89501  20413337.04001         0.00000         0.00000
 -11321939.23007  18095809.16507  -8811232.73948  18095807.47848
 -28375785.20706  18183578.93906 -22091857.86448  18183577.13448
 -33668656.11707  17306801.15707 -26218129.85348  17306799.09148
    297963.14806  20664669.88406    230975.92146  20664671.66146
 04  2 13  4 51 14.9890000  0  6  7  8 11 20 28 31
 -20757641.53107  19196483.89207 -16155348.46148  19196484.65048
    199042.87102  20415783.34502         0.00000         0.00000
 -11323001.40607  18095607.25107  -8812060.42948  18095604.86848
 -28436398.16806  18172044.63406 -22139088.73748  18172042.58348
 -33714960.94907  17297989.63407 -26254211.53648  17297987.47448
    306311.72705  20666259.45405    237481.21246  20666260.91946
 04  2 13  4 51 29.9890000  0  6  7  8 11 20 28 31
 -20823905.00007  19183874.11007 -16206982.29648  19183875.36048
    211922.62502  20418234.34502         0.00000         0.00000
 -11324008.41007  18095415.57107  -8812845.11748  18095413.07548
 -28496884.43406  18160534.43906 -22186220.89148  18160532.40048
 -33761130.67207  17289203.66507 -26290187.94248  17289201.98248
    314684.78506  20667852.16506    244005.69346  20667853.93146
 04  2 13  4 51 44.9890000  0  6  7  8 11 20 28 31
 -20890154.21907  19171267.57107 -16258605.03348  19171268.25548
    224829.46503  20420690.12603         0.00000         0.00000
 -11324960.83207  18095234.13407  -8813587.27248  18095231.86448
 -28557244.09806  18149048.59506 -22233254.35948  18149046.17348
 -33807165.43406  17280443.16506 -26326059.18148  17280441.34948
    323082.00806  20669450.06406    250548.92746  20669452.40746
 04  2 13  4 51 59.9890000  0  6  7  8 11 20 28 31
 -20956389.31307  19158663.61807 -16310216.76648  19158664.47448
    237762.72303  20423151.39203         0.00000         0.00000
 -11325859.10907  18095063.17307  -8814287.26448  18095061.22848
 -28617477.04307  18137586.36007 -22280189.13348  18137584.29848
 -33853065.19907  17271709.13407 -26361825.23648  17271707.11448
    331503.09806  20671052.80606    257110.73246  20671056.25146
 04  2 13  4 52 14.9890000  0  6  7  8 11 20 28 31
 -21022609.07407  19146062.15007 -16361816.55448  19146062.90748
    250723.10902  20425618.69602         0.00000         0.00000
 -11326702.30507  18094902.76707  -8814944.30448  18094901.33348
 -28677582.04306  18126148.94606 -22327024.18248  18126147.31048
 -33898828.77006  17263000.22806 -26397485.17348  17262998.68548
    339949.19505  20672659.18105    263692.07546  20672663.27546
 04  2 13  4 52 29.9890000  0  6  7  8 11 20 28 31
 -21088814.17607  19133463.21207 -16413404.91648  19133464.73548
    263709.37901  20428088.05601         0.00000         0.00000
 -11327491.35507  18094752.78207  -8815559.17148  18094751.49748
 -28737559.43007  18114735.61807 -22373759.79048  18114734.03248
 -33944456.61707  17254317.72007 -26433039.33648  17254316.06748
    348419.45306  20674272.47006    270292.18346  20674274.47846
 04  2 13  4 52 44.9890000  0  6  7  8 11 20 28 31
 -21155004.68807  19120867.92307 -16464981.89748  19120868.58348
    276721.13301  20430563.52501         0.00000         0.00000
 -11328226.71907  18094612.87607  -8816132.18348  18094610.99348
 -28797409.15607  18103346.36807 -22420395.93348  18103344.92348
 -33989948.83206  17245660.80606 -26468487.81848  17245659.02848
    356913.60205  20675887.93905    276911.05346  20675891.20446
 04  2 13  4 52 59.9890000  0  6  7  8 11 20 28 31
 -21221179.44507  19108275.51707 -16516546.62148  19108275.68148
         0.00000  20433042.85301         0.00000         0.00000
 -11328907.54307  18094483.21207  -8816662.70348  18094481.86448
 -28857129.91407  18091981.74307 -22466931.58748  18091980.43548
 -34035304.10906  17237030.05606 -26503829.58848  17237028.32148
    365432.89105  20677509.69605    283549.25946  20677512.01746
 04  2 13  4 53 14.9890000  0  6  7  8 11 20 28 31
 -21287339.69507  19095685.68107 -16568100.05648  19095685.89648
    302820.87501  20435529.95401         0.00000         0.00000
 -11329535.39507  18094363.80607  -8817151.96048  18094361.98548
 -28916722.71907  18080641.44607 -22513367.53948  18080640.89648
 -34080523.56606  17228425.40706 -26539065.54248  17228423.34948
    373975.80505  20679134.97805    290206.08446  20679137.50946
 04  2 13  4 53 29.9890000  0  7  4  7  8 11 20 28 31
   -257524.73814  20888961.97804   -169349.82956  20888966.25946
 -21353485.95307  19083098.28207 -16619642.56548  19083098.47848
    315906.31302  20438022.15002         0.00000         0.00000
 -11330110.97307  18094254.50107  -8817600.48448  18094252.96648
 -28976187.84007  18069326.11007 -22559703.98448  18069325.01348
 -34125607.66407  17219846.06407 -26574196.00048  17219844.16548
    382541.75805  20680765.69605    296880.78646  20680767.04446
 04  2 13  4 53 44.9890000  0  7  4  7  8 11 20 28 31
   -338617.25405  20873531.52505   -232538.71246  20873534.24746
 -21419618.23807  19070513.68107 -16671174.19148  19070514.26348
    329014.54303  20440518.00903         0.00000         0.00000
 -11330634.60907  18094154.94607  -8818008.52248  18094153.27848
 -29035525.12107  18058034.08707 -22605940.80348  18058033.14648
 -34170556.29306  17211292.56406 -26609220.89248  17211290.56048
    391130.69905  20682399.49305    303573.45146  20682402.20446
 04  2 13  4 53 59.9890000  0  7  4  7  8 11 20 28 31
   -419665.87504  20858108.02504   -295693.46946  20858111.25546
 -21485737.16807  19057931.74307 -16722695.40248  19057932.53648
    342144.35203  20443015.29003         0.00000         0.00000
 -11331107.28907  18094065.28207  -8818376.85748  18094063.38848
 -29094735.18407  18046767.25907 -22652078.51148  18046766.18548
 -34215370.07406  17202764.80606 -26644140.72848  17202762.60748
    399741.68405  20684038.74305    310283.20446  20684040.98246
 04  2 13  4 54 14.9890000  0  7  4  7  8 11 20 28 31
   -500670.21904  20842693.02504   -358813.70046  20842695.93946
 -21551842.59007  19045352.11007 -16774206.10448  19045352.98548
    355295.59404  20445519.51704  -3543279.16855  20445520.92345
 -11331529.20707  18093984.37607  -8818705.64148  18093983.35748
 -29153817.58207  18035524.10307 -22698116.72848  18035523.00548
 -34260048.64107  17194262.58707 -26678955.20248  17194260.47848
    408374.78105  20685681.33705    317010.26446  20685684.46246
 04  2 13  4 54 29.9890000  0  7  4  7  8 11 20 28 31
   -581630.62504  20827286.83704   -421899.66345  20827290.35345
 -21617934.69907  19032775.35307 -16825706.41748  19032775.89248
    368467.53504  20448025.85304  -3533015.31645  20448027.16945
 -11331900.68807  18093913.89207  -8818995.11848  18093912.33348
 -29212772.40207  18024305.28207 -22744055.54148  18024304.50548
 -34304592.09807  17185786.22807 -26713664.39448  17185784.43548
    417029.82005  20687328.49305    323754.36746  20687331.42746
 04  2 13  4 54 44.9890000  0  7  4  7  8 11 20 28 31
   -662546.21104  20811888.65704   -484950.73046  20811892.91546
 -21684012.79307  19020200.99307 -16877195.80547  19020201.25147
    381660.18004  20450535.99304  -3522735.45345  20450537.57145
 -11332221.48407  18093852.88407  -8819245.10248  18093851.63048
 -29271598.84007  18013111.19607 -22789894.31248  18013109.38448
 -34348999.81607  17177335.76707 -26748267.80548  17177333.97048
    425707.14805  20688980.23505    330515.90946  20688982.86846
 04  2 13  4 54 59.9890000  0  7  4  7  8 11 20 28 31
   -743416.72703  20796500.53203   -547966.62946  20796503.61446
 -21750076.60507  19007629.49307 -16928674.07848  19007629.23248
    394873.42604  20453049.90004  -3512439.48446  20453052.09946
 -11332491.50807  18093800.98507  -8819455.51648  18093799.98948
 -29330296.40607  18001941.16507 -22835632.66648  18001939.69248
 -34393271.38707  17168911.47007 -26782765.14148  17168909.18148
    434407.07805  20690635.46205    337295.05346  20690638.22046
 04  2 13  4 55 14.9890000  0  7  4  7  8 11 20 28 31
   -824240.91805  20781120.03205   -610946.40645  20781122.84145
 -21816125.15207  18995060.72007 -16980140.47248  18995060.47048
    408107.62905  20455569.04005  -3502127.22846  20455570.50946
 -11332710.14107  18093759.85307  -8819625.88948  18093758.44248
 -29388863.88707  17990796.40007 -22881269.65048  17990794.41948
 -34437405.87507  17160512.61807 -26817155.64948  17160510.47848
    443130.42205  20692295.36005    344092.43646  20692298.23246
 04  2 13  4 55 29.9890000  0  7  4  7  8 11 20 28 31
   -905019.46505  20765748.30605   -673890.68845  20765751.99745
 -21882158.82007  18982495.30607 -17031595.24748  18982495.44648
    421362.25005  20458090.18905  -3491799.04046  20458093.43946
 -11332878.05907  18093727.28207  -8819756.73948  18093725.75148
 -29447301.53107  17979675.65707 -22926805.45448  17979674.68548
 -34481403.44906  17152140.25906 -26851439.47348  17152138.28248
    451876.64805  20693959.11805    350907.64146  20693962.19246
 04  2 13  4 55 44.9890000  0  7  4  7  8 11 20 28 31
   -985751.85505  20750385.06405   -736798.89845  20750388.65345
 -21948177.22707  18969931.76707 -17083038.12147  18969932.20447
    434636.85905  20460616.44605  -3481455.27246  20460620.16146
 -11332995.25407  18093705.40707  -8819848.05948  18093702.78648
 -29505608.88707  17968580.02507 -22972239.73848  17968578.63048
 -34525263.64507  17143793.54007 -26885616.23948  17143791.81048
    460646.01605  20695629.10305    357740.80346  20695629.97046
 04  2 13  4 55 59.9890000  0  7  4  7  8 11 20 28 31
  -1066438.22705  20735031.07905   -799671.37945  20735034.51745
 -22014180.62907  18957372.04007 -17134469.32347  18957371.36847
    447930.66805  20463146.97805  -3471096.49346  20463149.97846
 -11333062.27007  18093692.86007  -8819900.31348  18093690.50148
 -29563785.94106  17957509.31406 -23017572.49848  17957508.14648
 -34568986.53906  17135473.10306 -26919686.03448  17135471.52148
    469438.10905  20697301.60305    364591.71846  20697301.68146
 04  2 13  4 56 14.9890000  0  7  4  7  8 11 20 28 31
  -1147077.89104  20719685.44604   -862507.42146  20719689.47446
 -22080168.42607  18944814.82107 -17185888.38348  18944814.83748
    461244.06305  20465679.83705  -3460722.53946  20465683.49346
 -11333078.80107  18093689.40007  -8819913.20048  18093687.59148
 -29621831.99607  17946463.36007 -23062803.17748  17946462.50548
 -34612571.48407  17127179.62607 -26953648.33048  17127177.42348
    478253.52005  20698979.15005    371460.82746  20698978.85346
 04  2 13  4 56 29.9890000  0  7  4  7  8 11 20 28 31
  -1227671.20304  20704349.05604   -925307.30145  20704352.74745
 -22146140.92207  18932260.65007 -17237295.50448  18932261.33748
    474576.05505  20468216.70405  -3450334.08746  20468220.19646
 -11333045.44107  18093695.69607  -8819887.21648  18093694.35348
 -29679747.18407  17935442.72007 -23107931.88248  17935442.19648
 -34656018.82007  17118911.62607 -26987503.38848  17118909.92748
    487091.65205  20700661.28205    378347.58146  20700660.60346
 04  2 13  4 56 44.9890000  0  7  4  7  8 11 20 28 31
  -1308217.33604  20689021.58704   -988070.51645  20689024.70845
 -22212097.25407  18919709.74307 -17288690.01148  18919710.33748
    487926.89505  20470757.69605  -3439930.88846  20470760.39646
 -11332961.64507  18093711.66507  -8819821.91348  18093710.50148
 -29737530.57007  17924446.76707 -23152957.87648  17924446.40348
 -34699327.61707  17110670.36807 -27021250.50248  17110668.39648
    495953.30905  20702347.47805    385252.75446  20702347.20046
 04  2 13  4 56 59.9890000  0  7  4  7  8 11 20 28 31
  -1388717.04704  20673703.32104  -1050797.47345  20673705.49345
 -22278038.28507  18907161.65007 -17340072.61548  18907162.07548
    501295.35205  20473301.48505  -3429514.01246  20473304.44646
 -11332828.55907  18093737.61807  -8819718.22748  18093735.87648
 -29795182.78507  17913475.96207 -23197881.66348  17913475.44648
 -34742498.68407  17102455.50907 -27054890.29748  17102453.40748
    504837.48804  20704038.73504    392175.44446  20704037.85346
 04  2 13  4 57 14.9890000  0  7  4  7  8 11 20 28 31
  -1469169.09404  20658394.37604  -1113487.32445  20658395.20845
 -22343962.89507  18894616.64207 -17391442.42348  18894617.21248
    514682.07805  20475849.25105  -3419082.86745  20475851.64645
 -11332645.56307  18093772.48507  -8819575.65748  18093770.44248
 -29852702.62907  17902530.53207 -23242702.30948  17902529.62248
 -34785530.91007  17094266.61807 -27088421.90548  17094264.87248
    513745.30105  20705733.83705    399116.50546  20705732.46246
 04  2 13  4 57 29.9890000  0  7  4  7  8 11 20 28 31
  -1549573.87904  20643093.68104  -1176140.31345  20643095.11445
 -22409871.45707  18882074.65007 -17442799.72348  18882075.06448
    528086.21105  20478399.22805  -3408638.16045  20478402.44245
 -11332413.25807  18093816.61007  -8819394.63848  18093814.18148
 -29910090.21907  17891609.96207 -23287419.88748  17891608.73548
 -34828424.48407  17086104.50907 -27121845.46948  17086102.47448
    522675.96905  20707433.63405    406075.42746  20707432.25946
 04  2 13  4 57 44.9890000  0  7  4  7  8 11 20 28 31
  -1629931.81603  20627801.45403  -1238756.77345  20627802.76345
 -22475764.48807  18869535.21207 -17494144.91648  18869536.13848
    541506.73404  20480953.29004  -3398180.73445  20480956.50545
 -11332132.25807  18093870.04807  -8819175.69548  18093867.35348
 -29967345.96507  17880714.51707 -23332034.74548  17880713.31748
 -34871179.84807  17077968.04807 -27155161.33248  17077966.23548
    531629.10905  20709136.77505    413051.81746  20709136.70846
 04  2 13  4 57 59.9890000  0  7  4  7  8 11 20 28 31
  -1710242.30504  20612519.50904  -1301336.29745  20612520.25145
 -22541641.30107  18856999.23507 -17545477.47848  18857000.03648
    554943.67205  20483510.68105  -3387710.45046  20483514.53646
 -11331802.11707  18093932.66507  -8818918.44548  18093930.29848
 -30024469.04307  17869844.42307 -23376546.22648  17869843.32148
 -34913795.94507  17069858.00107 -27188368.69548  17069856.74348
    540605.13706  20710844.47006    420046.17746  20710844.15046
 04  2 13  4 58 14.9890000  0  7  4  7  8 11 20 28 31
  -1790504.69504  20597245.89204  -1363878.39545  20597246.99745
 -22607501.35207  18844466.82107 -17596797.00248  18844467.28248
    568397.18004  20486070.21204  -3377227.32445  20486074.47845
 -11331422.77707  18094004.88407  -8818622.86648  18094002.84148
 -30081458.86707  17858999.53207 -23420953.86648  17858998.38448
 -34956272.54307  17061775.32907 -27221467.34948  17061773.58348
    549604.50405  20712557.82105    427058.55446  20712556.35346
 04  2 13  4 58 29.9890000  0  7  4  7  8 11 20 28 31
  -1870718.81604  20581981.03204  -1426382.83245  20581983.08745
 -22673344.42207  18831937.39207 -17648103.27348  18831937.68548
    581866.97705  20488633.99305  -3366731.50545  20488637.72845
 -11330994.23007  18094086.42307  -8818288.93548  18094084.78648
 -30138315.03107  17848179.83707 -23465257.35948  17848178.45048
 -34998609.40607  17053718.86807 -27254457.10548  17053716.72848
    558627.17605  20714273.82105    434089.20746  20714273.05246
 04  2 13  4 58 44.9890000  0  7  4  7  8 11 20 28 31
  -1950884.87504  20566725.86004  -1488849.79945  20566728.38045
 -22739170.86707  18819410.76707 -17699396.59248  18819411.07948
    595352.13705  20491199.85305  -3356223.61146  20491204.34946
 -11330517.20707  18094177.08707  -8817917.24348  18094175.29848
 -30195037.59407  17837386.14207 -23509456.73348  17837384.64248
 -35040806.64807  17045689.15707 -27287338.06848  17045686.84148
    567672.85504  20715995.55604    441137.70646  20715995.93146
 04  2 13  4 58 59.9890000  0  7  4  7  8 11 20 28 31
  -2031002.37504  20551479.76704  -1551278.94845  20551483.26345
 -22804980.23807  18806887.93907 -17750676.60948  18806888.18148
    608852.65205  20493769.83705  -3345703.90445  20493773.35745
 -11329991.70307  18094277.07907  -8817507.76348  18094275.44648
 -30251626.13707  17826617.91507 -23553551.70648  17826616.54048
 -35082863.89507  17037685.86007 -27320109.95348  17037683.65048
    576741.73405  20717721.55605    448204.29846  20717721.94246
 04  2 13  4 59 14.9890000  0  7  4  7  8 11 20 28 31
  -2111071.75005  20536242.75905  -1613670.60846  20536246.23946
 -22870772.76207  18794367.91507 -17801943.48448  18794368.49348
    622367.78905  20496341.82905  -3335172.64546  20496345.37246
 -11329418.20307  18094386.16507  -8817060.89248  18094384.96248
 -30308080.80507  17815874.73507 -23597542.33248  17815873.30248
 -35124781.34807  17029709.25907 -27352772.90348  17029707.08748
    585833.37105  20719451.52505    455288.65246  20719451.35746
 04  2 13  4 59 29.9890000  0  7  4  7  8 11 20 28 31
  -2191092.07005  20521015.74305  -1676024.06846  20521019.27146
 -22936547.75007  18781851.44607 -17853196.69348  18781851.86848
    635897.85505  20498916.36005  -3324629.94546  20498920.91546
 -11328796.13707  18094504.82907  -8816576.17648  18094503.43948
 -30364400.64507  17805157.35307 -23641427.90248  17805156.09548
 -35166558.21907  17021759.57107 -27385326.30848  17021756.81048
    594948.52005  20721186.36005    462391.29546  20721186.67346
 04  2 13  4 59 44.9880000  0  7  4  7  8 11 20 28 31
  -2271057.99205  20505799.11305  -1738335.01746  20505802.41046
 -23002300.94107  18769339.07407 -17904432.92748  18769338.89948
    649441.24205  20501493.39505  -3314076.69945  20501497.30945
 -11328126.11707  18094632.19907  -8816054.10248  18094630.49648
 -30420582.08607  17794466.47307 -23685205.63348  17794464.91448
 -35208191.86307  17013836.66007 -27417768.10148  17013834.51648
    604086.18005  20722924.79305    469511.48546  20722926.59046
 04  2 13  4 59 59.9880000  0  7  4  7  8 11 20 28 31
  -2350980.99205  20490589.87905  -1800612.67246  20490593.87146
 -23068041.73007  18756828.95707 -17955659.50648  18756828.83648
    662998.60205  20504074.00405  -3303512.54345  20504076.78145
 -11327408.94907  18094768.82407  -8815495.26448  18094767.13348
 -30476632.97707  17783800.49607 -23728881.64148  17783799.07848
 -35249688.31607  17005940.21507 -27450102.99648  17005938.24648
    613246.81305  20724667.96505    476649.60846  20724669.16446
 04  2 13  5  0 14.9880000  0  7  4  7  8 11 20 28 31
  -2430854.86705  20475390.16805  -1862851.94246  20475394.15646
 -23133764.90207  18744322.48807 -18006872.34948  18744322.09448
    676569.45305  20506656.14505  -3292938.01645  20506658.99245
 -11326644.12507  18094914.13707  -8814899.31448  18094911.93848
 -30532548.55907  17773159.74607 -23772452.21948  17773159.24648
 -35291043.94907  16998070.45707 -27482328.16748  16998068.59848
    622430.57805  20726416.73805    483805.71646  20726416.23146
 04  2 13  5  0 29.9880000  0  7  4  7  8 11 20 28 31
  -2510679.71105  20460200.61305  -1925053.04746  20460203.17646
 -23199470.63307  18731818.97307 -18058071.60948  18731818.97348
    690152.79704  20509240.63704  -3282353.63345  20509243.99245
 -11325832.21907  18095068.75407  -8814266.67048  18095066.67248
 -30588329.01607  17762544.92607 -23815917.47448  17762544.26248
 -35332259.01207  16990227.73107 -27514443.80848  16990225.60948
    631636.98405  20728167.98805    490979.50646  20728169.12946
 04  2 13  5  0 44.9880000  0  7  4  7  8 11 20 28 31
  -2590455.65205  20445018.69205  -1987215.95046  20445022.21946
 -23265158.97307  18719318.87907 -18109257.29548  18719318.40648
    703748.28503  20511827.21503  -3271759.88345  20511831.67245
 -11324973.77707  18095231.87907  -8813597.74748  18095229.54348
 -30643974.32007  17751956.10607 -23859277.42748  17751955.19948
 -35373333.48407  16982411.32407 -27546449.89848  16982409.68448
    640865.88705  20729924.37905    498170.85546  20729925.48446
 04  2 13  5  0 59.9880000  0  7  4  7  8 11 20 28 31
  -2670182.18805  20429847.62105  -2049340.41846  20429850.23146
 -23330829.67607  18706822.28507 -18160429.26848  18706821.18848
    717355.80901  20514417.04301  -3261156.69945  20514421.56345
 -11324068.33207  18095404.61307  -8812892.23948  18095402.20348
 -30699483.88307  17741393.41807 -23902531.63348  17741392.36348
 -35414266.86307  16974621.92607 -27578346.05248  16974620.23448
    650117.64505  20731684.61305    505379.92346  20731686.35646
 04  2 13  5  1 14.9880000  0  7  4  7  8 11 20 28 31
  -2749858.96505  20414685.19205  -2111426.06746  20414687.46946
 -23396482.23807  18694328.66007 -18211587.07848  18694328.00048
    730975.24601  20517007.07401  -3250544.23845  20517013.43045
 -11323115.98007  18095585.57407  -8812150.15248  18095583.73848
 -30754857.21107  17730856.06707 -23945679.64648  17730855.19948
 -35455058.72707  16966859.62907 -27610131.91548  16966858.02448
    659392.39805  20733450.06705    512606.90946  20733450.80146
 04  2 13  5  1 29.9880000  0  7  4  7  8 11 20 28 31
  -2829486.53504  20399533.14504  -2173473.47746  20399535.01646
 -23462117.25007  18681838.45707 -18262731.24248  18681838.41048
    744605.50811  20519600.62901         0.00000         0.00000
 -11322117.66007  18095775.77707  -8811372.26148  18095773.84848
 -30810094.84807  17720344.33207 -23988721.93248  17720344.16848
 -35495709.75806  16959123.62106 -27641808.03948  16959122.14148
    668689.45305  20735219.25405    519851.29646  20735219.93846
 04  2 13  5  1 44.9880000  0  7  4  7  8 11 20 28 31
  -2909064.34805  20384390.02005  -2235481.98746  20384391.84046
 -23527734.18007  18669351.95707 -18313861.27847  18669351.71147
    758246.52001  20522196.00401         0.00000         0.00000
 -11321073.09407  18095974.41007  -8810558.32348  18095973.02448
 -30865195.99607  17709859.31707 -24031657.87248  17709857.91048
 -35536219.23407  16951415.17607 -27673373.86348  16951413.60648
    678009.22705  20736993.19205    527113.42646  20736992.64546
 04  2 13  5  1 59.9880000  0  7  4  7  8 11 20 28 31
  -2988591.13305  20369255.69205  -2297450.94546  20369258.30146
 -23593331.73407  18656869.24607 -18364976.26448  18656867.89548
    771899.28111  20524794.89501         0.00000         0.00000
 -11319981.30107  18096182.17607  -8809707.58348  18096180.69948
 -30920159.34807  17699400.22307 -24074486.45748  17699398.64548
 -35576585.93007  16943733.65207 -27704828.44948  16943732.15648
    687352.76205  20738770.21505    534394.09346  20738772.00046
 04  2 13  5  2 14.9880000  0  7  4  7  8 11 20 28 31
  -3068067.70704  20354131.40204  -2359380.60846  20354134.39146
 -23658910.64107  18644390.37907 -18416076.69948  18644389.31748
    785562.34001  20527395.62901         0.00000         0.00000
 -11318843.27007  18096398.55107  -8808820.81048  18096397.43448
 -30974985.52007  17688966.93407 -24117208.11948  17688965.77048
 -35616810.51607  16936079.16007 -27736172.28348  16936077.57448
    696719.24205  20740552.74605    541692.60946  20740554.50846
 04  2 13  5  2 29.9880000  0  7  4  7  8 11 20 28 31
  -3147494.48804  20339016.88704  -2421271.55646  20339020.08246
 -23724471.63707  18631913.93407 -18467163.16748  18631913.37948
    799234.61304  20529999.30904  -3197355.49956  20530003.74246
 -11317660.16807  18096623.73807  -8807898.92448  18096622.92248
 -31029675.16807  17678559.80907 -24159823.42248  17678558.64148
 -35656893.64807  16928451.66007 -27767405.90248  16928450.07048
    706107.77305  20742339.50405    549008.22846  20742341.16046
 04  2 13  5  2 44.9880000  0  7  4  7  8 11 20 28 31
  -3226870.65604  20323912.69904  -2483123.02846  20323915.12546
 -23790013.89807  18619442.05907 -18518235.04748  18619441.21548
    812916.45704  20532601.93404  -3186694.56945  20532606.95745
 -11316431.33607  18096857.63707  -8806941.41748  18096856.96548
 -31084227.32007  17668179.06707 -24202331.57448  17668177.75848
 -35696834.36307  16920851.43407 -27798528.54648  16920849.66448
    715519.10205  20744130.04305    556341.67446  20744132.33646
 04  2 13  5  2 59.9880000  0  7  4  7  8 11 20 28 31
  -3306196.37504  20308817.61304  -2544935.23746  20308819.88346
 -23855537.40207  18606973.23807 -18569292.29948  18606972.77048
    826607.30505  20535207.97305  -3176026.43845  20535212.09445
 -11315157.14507  18097100.19207  -8805948.55348  18097099.32048
 -31138641.83607  17657824.14507 -24244732.49348  17657822.35648
 -35736632.89807  16913277.93407 -27829540.40048  16913276.36348
    724953.03504  20745925.82404    563692.72446  20745928.12146
 04  2 13  5  3 14.9880000  0  7  4  7  8 11 20 28 31
  -3385471.54705  20293731.71505  -2606707.99046  20293733.82046
 -23921042.14107  18594508.04307 -18620334.91948  18594507.62148
    840306.55505  20537814.95705  -3165351.64446  20537819.26246
 -11313837.91407  18097351.34807  -8804920.57248  18097350.09048
 -31192918.60207  17647495.62107 -24287026.05148  17647493.98848
 -35776289.17207  16905731.59807 -27860441.38948  16905730.43048
    734409.51605  20747724.73805    571061.36846  20747727.90246
 04  2 13  5  3 29.9880000  0  7  4  7  8 11 20 28 31
  -3464696.26205  20278655.15205  -2668441.48846  20278658.72346
 -23986528.13707  18582046.03507 -18671362.94348  18582045.41048
    854013.77005  20540423.52005  -3154670.84345  20540426.89945
 -11312474.01207  18097610.88707  -8803857.81248  18097609.63348
 -31247057.60207  17637193.26207 -24329212.26748  17637192.03548
 -35815803.03107  16898212.31707 -27891231.40948  16898210.72748
    743888.35304  20749529.02004    578447.43746  20749531.50046
 04  2 13  5  3 44.9880000  0  7  4  7  8 11 20 28 31
  -3543870.03505  20263590.11305  -2730135.24146  20263592.41046
 -24051995.05907  18569588.44207 -18722376.11948  18569587.91448
    867728.79305  20543032.33205  -3143983.96545  20543036.78145
 -11311065.23807  18097879.38707  -8802760.08848  18097877.78548
 -31301058.31607  17626917.38707 -24371290.71248  17626915.81748
 -35855174.22307  16890720.37107 -27921910.25548  16890718.66448
    753389.67604  20751336.56704    585851.06746  20751340.05546
 04  2 13  5  3 59.9880000  0  7  4  7  8 11 20 28 31
  -3622993.19905  20248532.11305  -2791789.56246  20248535.16846
 -24117443.23407  18557133.98107 -18773374.69448  18557133.18448
    881450.85205  20545644.43405  -3133291.59445  20545648.34445
 -11309612.40607  18098155.52007  -8801628.04848  18098153.91448
 -31354921.02007  17616667.59007 -24413261.65448  17616666.08648
 -35894403.05507  16883255.43407 -27952478.19348  16883253.41448
    762913.01604  20753150.39504    593271.76046  20753151.94246
 04  2 13  5  4 14.9880000  0  7  4  7  8 11 20 28 31
  -3702065.42205  20233485.68405  -2853404.29246  20233488.41046
 -24182872.31307  18544683.08207 -18824358.35248  18544682.95348
    895179.58605  20548256.65205  -3122593.96545  20548260.41445
 -11308115.50807  18098440.69907  -8800461.64848  18098438.28948
 -31408645.21907  17606444.18407 -24455124.64148  17606442.95748
 -35933489.16407  16875817.34007 -27982934.89148  16875814.80548
    772458.59804  20754965.61304    600709.78746  20754968.69946
 04  2 13  5  4 29.9880000  0  7  4  7  8 11 20 28 31
  -3781086.73005  20218448.62905  -2914979.24646  20218451.63746
 -24248282.28107  18532235.92607 -18875327.14048  18532236.39548
    908914.73805  20550870.75405  -3111891.39545  20550873.03545
 -11306574.58607  18098733.69907  -8799260.95348  18098731.77748
 -31462230.95307  17596246.55107 -24496879.74948  17596245.87948
 -35972432.49207  16868406.77707 -28013280.34348  16868404.15248
    782026.28505  20756786.67605    608165.06946  20756788.91446
 04  2 13  5  4 44.9880000  0  7  4  7  8 11 20 28 31
  -3860056.69105  20203421.34805  -2976514.16846  20203423.85246
 -24313672.81307  18519792.57407 -18926280.77248  18519792.60948
    922656.10905  20553485.44905  -3101183.89145  20553487.55945
 -11304989.74607  18099035.45707  -8798026.02748  18099033.41848
 -31515677.62907  17586076.48107 -24538526.48848  17586075.78548
 -36011232.72707  16861023.15207 -28043514.29448  16861020.64548
    791616.26605  20758611.63705    615637.70046  20758613.42246
 04  2 13  5  4 59.9880000  0  7  4  7  8 11 20 28 31
  -3938975.53904  20188403.11304  -3038009.44046  20188405.56346
 -24379044.04707  18507353.19207 -18977219.38148  18507352.57448
    936402.92605  20556102.36305  -3090472.23045  20556103.64545
 -11303361.61307  18099345.37907  -8796757.37548  18099343.48848
 -31568985.37907  17575932.41007 -24580064.98748  17575931.27748
 -36049889.99607  16853666.95707 -28073636.84548  16853664.59448
    801228.19104  20760441.04304    623127.46846  20760442.26246
 04  2 13  5  5 14.9880000  0  7  4  7  8 11 20 28 31
  -4017843.11705  20173395.06705  -3099464.50845  20173397.21945
 -24444395.86707  18494916.95707 -19028142.85948  18494916.73448
    950154.84805  20558717.91005  -3079756.53545  20558721.45745
 -11301690.18407  18099662.93407  -8795454.97348  18099661.07048
 -31622153.91006  17565814.31706 -24621494.99948  17565813.29748
 -36088404.15206  16846338.41806 -28103647.87448  16846336.19548
    810862.03504  20762273.98104    630634.29946  20762275.22346
 04  2 13  5  5 29.9880000  0  7  4  7  8 11 20 28 31
  -4096658.82805  20158396.44205  -3160879.28545  20158399.06345
 -24509727.68407  18482485.07407 -19079050.75148  18482484.89948
    963912.01605  20561336.13705  -3069036.84245  20561339.88345
 -11299975.17207  18099989.46507  -8794118.60648  18099987.57048
 -31675182.69907  17555723.47307 -24662816.12248  17555722.20748
 -36126774.59407  16839036.56707 -28133546.91948  16839034.32048
    820518.30505  20764111.18405    638158.67746  20764112.35246
 04  2 13  5  5 44.9880000  0  6  4  7 11 20 28 31
  -4175422.26204  20143408.91804  -3222253.33645  20143411.26645
 -24575039.19107  18470056.61307 -19129942.82448  18470056.41448
 -11298216.63307  18100324.09007  -8792748.33348  18100321.95748
 -31728071.24607  17545659.27707 -24704027.97148  17545658.17648
 -36165001.06607  16831762.26207 -28163333.78448  16831760.14948
    830197.05104  20765953.35604    645700.49646  20765954.70346
 04  2 13  5  5 59.9880000  0  6  4  7 11 20 28 31
  -4254134.60205  20128430.48805  -3283587.60945  20128433.01645
 -24640331.42207  18457631.89507 -19180819.86948  18457631.63348
 -11296416.05907  18100666.52007  -8791345.30548  18100664.57448
 -31780820.60507  17535621.12907 -24745131.34848  17535619.98448
 -36203084.52707  16824515.17607 -28193009.20648  16824513.26648
    839897.18004  20767799.64504    653258.91846  20767800.66046
 04  2 13  5  6 14.9880000  0  6  4  7 11 20 28 31
  -4332794.69505  20113462.09005  -3344881.09845  20113464.86345
 -24705603.33607  18445210.76207 -19231681.08748  18445210.28948
 -11294572.46507  18101017.64507  -8789908.76548  18101015.41048
 -31833429.60907  17525610.31707 -24786125.36148  17525609.23448
 -36241023.99207  16817295.63707 -28222572.42448  16817293.80948
    849619.62504  20769649.17604    660834.82846  20769651.35246
 04  2 13  5  6 29.9880000  0  6  4  7 11 20 28 31
  -4411401.42205  20098503.26205  -3406133.02345  20098505.74245
 -24770853.67607  18432794.22307 -19282525.48348  18432793.64148
 -11292685.13307  18101376.57407  -8788438.13148  18101374.68448
 -31885896.86707  17515625.75407 -24827008.92948  17515625.05148
 -36278818.27007  16810103.36307 -28252022.51748  16810101.74648
    859365.29304  20771503.54304    668428.86046  20771506.00446
 04  2 13  5  6 44.9880000  0  6  4  7 11 20 28 31
  -4489954.84805  20083555.03505  -3467343.37446  20083556.78146
 -24836082.59007  18420381.44207 -19333353.18548  18420381.44248
 -11290754.40607  18101743.91807  -8786933.69248  18101742.52448
 -31938222.37907  17505669.05107 -24867782.04348  17505667.71148
 -36316467.47307  16802939.14507 -28281359.56248  16802937.19548
    869134.15605  20773362.69905    676040.86346  20773364.86346
 04  2 13  5  6 59.9880000  0  6  4  7 11 20 28 31
  -4568453.31305  20068617.98805  -3528511.01646  20068618.48846
 -24901288.56307  18407973.37907 -19384163.01248  18407973.13748
 -11288778.98007  18102119.72307  -8785394.41348  18102118.80948
 -31990404.66807  17495738.98107 -24908443.56048  17495737.98148
 -36353970.03907  16795802.59807 -28310582.35448  16795800.34848
    878927.29305  20775225.78505    683671.84246  20775228.48446
 04  2 13  5  7 14.9880000  0  6  4  7 11 20 28 31
  -4646897.77005  20053690.02005  -3589636.50046  20053691.59446
 -24966472.44507  18395568.99607 -19434955.63548  18395568.87148
 -11286760.08207  18102504.41807  -8783821.26548  18102502.91448
 -32042444.48807  17485836.39507 -24948994.05048  17485835.29348
 -36391326.77707  16788693.81707 -28339691.49748  16788691.93048
    888743.90204  20777094.32404    691321.05446  20777096.66446
 04  2 13  5  7 29.9880000  0  6  4  7 11 20 28 31
  -4725288.44905  20038772.35605  -3650720.08445  20038774.03545
 -25031634.38307  18383169.55907 -19485731.15948  18383168.77748
 -11284698.21507  18102896.39507  -8782214.62648  18102895.44248
 -32094342.03107  17475960.37907 -24989433.68448  17475959.02748
 -36428537.96507  16781612.83207 -28368687.23348  16781611.00848
    898583.50004  20778967.68404    698988.20346  20778970.23146
 04  2 13  5  7 44.9880000  0  6  4  7 11 20 28 31
  -4803624.75805  20023865.87105  -3711761.33945  20023867.51645
 -25096773.80107  18370773.70707 -19536489.13148  18370773.21548
 -11282593.16407  18103296.97307  -8780574.33148  18103296.09048
 -32146096.55107  17466111.59007 -25029761.87648  17466110.40648
 -36465603.01207  16774559.33207 -28397569.09648  16774557.45348
    908446.58604  20780843.97304    706673.65746  20780846.93446
 04  2 13  5  7 59.9880000  0  6  4  7 11 20 28 31
  -4881906.34805  20008968.86305  -3772759.89545  20008970.72745
 -25161890.58207  18358382.30107 -19587229.45548  18358382.05948
 -11280444.87107  18103705.83207  -8778900.37848  18103704.75848
 -32197707.76207  17456290.46507 -25069978.39548  17456288.82448
 -36502521.69107  16767534.40207 -28426336.90848  16767532.25048
    918333.26204  20782725.99604    714377.50046  20782728.38746
 04  2 13  5  8 14.9880000  0  6  4  7 11 20 28 31
  -4960133.87105  19994083.39505  -3833716.34045  19994084.41445
 -25226985.19907  18345995.20707 -19637952.51748  18345995.09448
 -11278254.31607  18104122.98107  -8777193.46348  18104121.23148
 -32249176.30507  17446496.25407 -25110083.74148  17446494.64948
 -36539294.67207  16760536.72307 -28454991.18048  16760534.60248
    928242.71904  20784611.37104    722099.05446  20784614.44546
 04  2 13  5  8 29.9880000  0  6  4  7 11 20 28 31
  -5038307.48005  19979207.03505  -3894630.77945  19979207.98145
 -25292057.66407  18333612.12907 -19688658.30048  18333611.97748
 -11276021.75007  18104547.44207  -8775453.81548  18104546.21548
 -32300501.89107  17436729.10607 -25150077.68048  17436727.73448
 -36575921.87907  16753566.55907 -28483531.85448  16753564.41448
    938174.89105  20786501.33205    729838.39346  20786504.52746
 04  2 13  5  8 44.9880000  0  6  4  7 11 20 28 31
  -5116426.93404  19964341.33204  -3955503.02445  19964342.37945
 -25357107.93407  18321233.38707 -19739346.82148  18321233.03148
 -11273747.54707  18104980.49607  -8773681.73948  18104978.83648
 -32351684.53107  17426989.23107 -25189960.26148  17426987.94248
 -36612403.32407  16746624.52007 -28511958.97148  16746622.43048
    948129.57804  20788394.83204    737595.23046  20788398.66446
 04  2 13  5  8 59.9880000  0  6  4  7 11 20 28 31
  -5194492.47703  19949485.20703  -4016333.27745  19949486.41045
 -25422136.03506  18308859.41806 -19790018.06348  18308858.78548
 -11271432.11307  18105421.06707  -8771877.51048  18105419.23448
 -32402724.26607  17417276.69907 -25229731.47148  17417275.30548
 -36648739.09407  16739710.32407 -28540272.55748  16739707.95348
    958106.52704  20790293.92604    745369.45646  20790297.25846
 04  2 13  5  9 14.9880000  0  5  4  7 11 20 28
  -5272504.64102  19934639.59802  -4077121.94945  19934641.07445
 -25487142.73406  18296488.31706 -19840672.61548  18296488.76248
 -11269076.30507  18105869.16807  -8770041.83548  18105867.70348
 -32453621.64107  17407591.53507 -25269391.74448  17407590.36348
 -36684929.86307  16732823.03507 -28568473.15148  16732821.15248
 04  2 13  5  9 29.9880000  0  5  4  7 11 20 28
  -5350462.44502  19919804.27002  -4137868.27045  19919806.19945
 -25552126.82006  18284122.58206 -19891309.54448  18284122.94948
 -11266679.18807  18106325.57407  -8768173.96448  18106323.98148
 -32504375.54707  17397933.20707 -25308940.23248  17397932.15248
 -36720974.50007  16725964.11307 -28596559.87348  16725962.10248
 04  2 13  5  9 44.9880000  0  5  4  7 11 20 28
  -5428366.18001  19904978.83201  -4198572.41445  19904981.15245
 -25617088.78906  18271760.68406 -19941929.24648  18271760.96548
 -11264241.69907  18106789.32407  -8766274.65848  18106787.83248
 -32554986.27307  17388302.49607 -25348377.15848  17388301.45748
 -36756873.52007  16719132.78507 -28624533.13648  16719130.41848
 04  2 13  5  9 59.9880000  0  5  4  7 11 20 28
  -5506214.59402  19890164.75402  -4259233.48445  19890167.93045
 -25682027.19906  18259403.02006 -19992530.57848  18259402.73448
 -11261762.90207  18107261.03507  -8764343.14748  18107259.36748
 -32605452.52707  17378698.94907 -25387701.50348  17378697.80148
 -36792625.58607  16712329.37907 -28652391.89448  16712327.35948
 04  2 13  5 10 14.9880000  0  5  4  7 11 20 28
  -5584007.08202  19875362.39502  -4319850.91845  19875364.62145
 -25746941.65206  18247050.35606 -20043113.25048  18247050.94548
 -11259242.34807  18107740.80907  -8762379.10148  18107739.44248
 -32655773.68807  17369123.42607 -25426912.78548  17369122.57448
 -36828230.18006  16705553.83206 -28680135.74448  16705551.89148
 04  2 13  5 10 29.9880000  0  5  4  7 11 20 28
  -5661742.93802  19860570.19202  -4380424.24245  19860572.23845
 -25811831.06607  18234702.19207 -20093676.41748  18234703.23848
 -11256679.53907  18108228.24607  -8760382.11348  18108227.41048
 -32705948.81607  17359575.30907 -25466010.27848  17359574.40248
 -36863686.51607  16698806.75407 -28707764.06348  16698804.98148
 04  2 13  5 10 44.9880000  0  5  4  7 11 20 28
  -5739422.41401  19845788.67601  -4440953.69945  19845789.78545
 -25876695.99606  18222359.15206 -20144220.49648  18222359.28548
 -11254075.33207  18108724.24607  -8758352.88348  18108723.01648
 -32755978.36707  17350054.62107 -25504994.32848  17350054.03148
 -36898995.05507  16692087.76207 -28735277.21848  16692085.78948
 04  2 13  5 10 59.9880000  0  5  4  7 11 20 28
  -5817046.01601  19831017.42601  -4501439.56345  19831019.16045
 -25941536.79306  18210019.67606 -20194745.78648  18210019.94948
 -11251430.19507  18109227.05107  -8756291.75748  18109226.37148
 -32805862.51607  17340562.10607 -25543865.08048  17340561.23448
 -36934156.07806  16685396.85606 -28762675.42148  16685395.22348
 04  2 13  5 11 14.9880000  0  5  4  7 11 20 28
  -5894613.10901  19816256.23101  -4561881.50845  19816258.30145
 -26006352.90607  18197685.91007 -20245251.82948  18197685.59048
 -11248743.94907  18109738.40207  -8754198.59648  18109736.95348
 -32855600.64507  17331097.15207 -25582622.05448  17331096.59448
 -36969169.09407  16678734.47307 -28789958.29348  16678732.66448
 04  2 13  5 11 29.9870000  0  5  4  7 11 20 28
  -5972118.96902  19801507.77302  -4622275.43445  19801509.92545
 -26071140.50806  18185357.36606 -20295735.65648  18185357.11648
 -11246017.57407  18110257.46007  -8752074.16248  18110256.03848
 -32905189.98407  17321661.06207 -25621263.09948  17321660.00348
 -37004032.46907  16672100.24907 -28817124.57448  16672097.86248
 04  2 13  5 11 44.9870000  0  5  4  7 11 20 28
  -6049574.11703  19786768.86603  -4682630.09045  19786770.97645
 -26135908.17206  18173032.77306 -20346203.94548  18173032.53848
 -11243250.99607  18110783.91307  -8749918.42048  18110782.08548
 -32954637.05507  17312251.03007 -25659793.27248  17312249.85948
 -37038750.70707  16665493.33507 -28844177.75248  16665491.19848
 04  2 13  5 11 59.9870000  0  5  4  7 11 20 28
  -6126974.00003  19772040.32703  -4742941.68445  19772042.82745
 -26200652.29706  18160712.24106 -20396653.89048  18160712.15148
 -11240445.48807  18111318.01507  -8747732.34148  18111315.73748
 -33003939.33607  17302869.31207 -25698210.62648  17302867.81648
 -37073322.27307  16658914.84307 -28871116.64648  16658912.30448
 04  2 13  5 12 14.9870000  0  5  4  7 11 20 28
  -6204317.62104  19757322.55404  -4803209.39845  19757324.78845
 -26265371.84407  18148396.57707 -20447084.67948  18148396.89848
 -11237600.05107  18111859.37407  -8745515.13448  18111857.47248
 -33053095.50807  17293515.46807 -25736514.13648  17293514.19848
 -37107746.16807  16652364.08507 -28897940.46148  16652362.05848
 04  2 13  5 12 29.9870000  0  5  4  7 11 20 28
  -6281605.08203  19742614.89003  -4863433.37545  19742616.91745
 -26330066.77706  18136085.47606 -20497496.29148  18136085.63248
 -11234715.25007  18112408.14007  -8743267.24548  18112406.17948
 -33102105.67207  17284188.80407 -25774703.85548  17284188.41748
 -37142022.40207  16645841.59307 -28924649.20948  16645839.29648
 04  2 13  5 12 44.9870000  0  5  4  7 11 20 28
  -6358836.84403  19727917.25703  -4923613.93045  19727920.41345
 -26394737.76606  18123778.89806 -20547889.26548  18123778.88248
 -11231791.96107  18112964.49107  -8740989.38548  18112963.19448
 -33150970.34007  17274890.38207 -25812780.22248  17274889.40948
 -37176151.71507  16639346.98407 -28951243.49548  16639344.94848
 04  2 13  5 12 59.9870000  0  5  4  7 11 20 28
  -6436012.60502  19713230.24902  -4983750.74645  19713233.55845
 -26459384.36306  18111477.08506 -20598263.22348  18111476.93348
 -11228830.10907  18113528.26507  -8738681.46448  18113527.14848
 -33199689.17207  17265619.14807 -25850742.93148  17265618.33148
 -37210133.72307  16632879.97607 -28977722.98248  16632878.47248
 04  2 13  5 13 14.9870000  0  5  4  7 11 20 28
  -6513132.37103  19698555.86603  -5043844.05145  19698557.61245
 -26524006.62906  18099180.21806 -20648618.22048  18099179.69448
 -11225829.97307  18114099.30407  -8736343.70948  18114097.87448
 -33248262.24607  17256376.63207 -25888592.06348  17256374.97248
 -37243968.48407  16626441.17907 -29004087.72548  16626439.53448
 04  2 13  5 13 29.9870000  0  5  4  7 11 20 28
  -6590196.18403  19683890.98403  -5103893.70345  19683892.12045
 -26588604.58207  18086887.17907 -20698954.26948  18086887.08548
 -11222791.87107  18114677.28007  -8733976.38548  18114676.41748
 -33296689.42207  17247161.14807 -25926327.52448  17247160.24148
 -37277656.00407  16620030.71807 -29030337.74048  16620029.00748
 04  2 13  5 13 44.9870000  0  5  4  7 11 20 28
  -6667203.37103  19669236.46803  -5163899.23045  19669238.26545
 -26653177.42207  18074599.22607 -20749270.75348  18074599.09748
 -11219715.34807  18115262.76507  -8731579.12548  18115261.82348
 -33344969.95307  17237973.09307 -25963948.69148  17237971.85148
 -37311195.69107  16613648.74107 -29056472.57348  16613646.53448
 04  2 13  5 13 59.9870000  0  5  4  7 11 20 28
  -6744154.53102  19654593.61602  -5223861.16945  19654595.51945
 -26717725.76207  18062316.06907 -20799568.13148  18062316.16348
 -11216601.41007  18115855.34307  -8729152.67748  18115854.58148
 -33393104.42207  17228813.96007 -26001456.07148  17228812.16748
 -37344588.15607  16607294.10907 -29082492.67248  16607292.86648
 04  2 13  5 14 14.9870000  0  5  4  7 11 20 28
  -6821049.22302  19639962.49902  -5283779.07045  19639963.48045
 -26782249.29307  18050037.53807 -20849846.17548  18050037.89048
 -11213449.97707  18116455.31207  -8726697.03548  18116453.99948
 -33441092.44507  17219682.13207 -26038849.31248  17219680.67148
 -37377833.18407  16600967.81207 -29108397.89048  16600966.58948
 04  2 13  5 14 29.9870000  0  5  4  7 11 20 28
  -6897887.57403  19625340.56903  -5343653.05945  19625341.04245
 -26846747.85507  18037763.99907 -20900104.78148  18037763.96048
 -11210261.53907  18117061.76507  -8724212.55648  18117060.57348
 -33488933.90607  17210577.83507 -26076128.37148  17210576.77348
 -37410930.76207  16594669.70207 -29134188.21448  16594667.87448
 04  2 13  5 14 44.9870000  0  5  4  7 11 20 28
  -6974670.25803  19610728.35903  -5403483.62846  19610729.31946
 -26911222.19507  18025495.50707 -20950344.51148  18025495.19148
 -11207036.81607  18117675.71807  -8721699.81948  18117674.19148
 -33536629.59807  17201501.79607 -26113293.84348  17201500.81648
 -37443881.68807  16588399.46007 -29159864.27648  16588397.55448
 04  2 13  5 14 59.9870000  0  5  4  7 11 20 28
  -7051396.31304  19596127.39804  -5463270.06046  19596129.06646
 -26975671.35907  18013231.10907 -21000564.61448  18013230.59348
 -11203775.10207  18118296.00707  -8719158.23648  18118295.06948
 -33584178.54307  17192453.21807 -26150344.96248  17192451.73448
 -37476684.98407  16582157.22607 -29185425.28548  16582155.62048
 04  2 13  5 15 14.9870000  0  5  4  7 11 20 28
  -7128065.97303  19581538.03003  -5523012.56946  19581540.55446
 -27040095.52007  18000971.63207 -21050765.24948  18000970.90548
 -11200476.90207  18118923.96807  -8716588.24048  18118922.65948
 -33631580.85507  17183433.21007 -26187281.82748  17183431.77348
 -37509340.89807  16575943.31207 -29210871.46148  16575941.42548
 04  2 13  5 15 29.9870000  0  5  4  7 11 20 28
  -7204679.08603  19566958.43703  -5582711.04446  19566961.43746
 -27104494.60207  17988716.81207 -21100946.33248  17988716.09348
 -11197142.38707  18119558.19407  -8713989.93148  18119557.12448
 -33678836.34807  17174440.93707 -26224104.29048  17174439.33948
 -37541849.30507  16569756.90507 -29236202.69348  16569755.17148
 04  2 13  5 15 44.9870000  0  5  4  7 11 20 28
  -7281235.53904  19552391.59304  -5642365.39746  19552393.33546
 -27168868.20307  17976466.80407 -21151107.57548  17976466.06248
 -11193771.53907  18120199.74907  -8711363.33248  18120198.64048
 -33725944.68407  17165476.43707 -26260812.07348  17165474.98448
 -37574210.11707  16563598.81907 -29261418.92448  16563597.10548
 04  2 13  5 15 59.9870000  0  5  4  7 11 20 28
  -7357735.16004  19537833.84304  -5701975.39746  19537836.14846
 -27233216.34807  17964221.28807 -21201248.96048  17964221.29648
 -11190364.91007  18120848.24107  -8708708.83348  18120846.85548
 -33772906.00807  17156540.21007 -26297405.31148  17156538.26148
 -37606423.35507  16557468.94407 -29286520.14048  16557466.92948
 04  2 13  5 16 14.9870000  0  5  4  7 11 20 28
  -7434177.69103  19523286.79603  -5761540.95045  19523289.07345
 -27297538.59007  17951981.44407 -21251370.17248  17951981.72248
 -11186922.35207  18121503.56207  -8706026.33148  18121502.19148
 -33819719.72707  17147631.54607 -26333883.51148  17147630.00348
 -37638488.68407  16551367.22607 -29311506.11548  16551365.11648
 04  2 13  5 16 29.9870000  0  5  4  7 11 20 28
  -7510564.19903  19508750.57703  -5821062.80046  19508752.93746
 -27361836.13707  17939745.89807 -21301472.12548  17939746.08548
 -11183445.12107  18122164.90507  -8703316.81348  18122163.71048
 -33866387.16807  17138751.20207 -26370247.74448  17138749.45648
 -37670407.28107  16545293.05407 -29336377.74748  16545290.99548
 04  2 13  5 16 44.9870000  0  5  4  7 11 20 28
  -7586893.80504  19494226.20204  -5880540.29346  19494226.73746
 -27426107.85507  17927515.64007 -21351553.96948  17927515.45648
 -11179932.65607  18122833.15507  -8700579.84948  18122832.04648
 -33912907.16407  17129898.71807 -26406497.07748  17129896.90548
 -37702178.17207  16539247.21807 -29361134.28948  16539244.99948
 04  2 13  5 16 59.9870000  0  5  4  7 11 20 28
  -7663166.14504  19479711.57704  -5939973.26245  19479712.44845
 -27490353.62907  17915289.64807 -21401615.60048  17915289.77348
 -11176384.90207  18123508.28807  -8697815.38148  18123507.65148
 -33959279.52707  17121073.77307 -26442631.37648  17121072.64848
 -37733801.29307  16533229.60907 -29385775.68048  16533227.40948
 04  2 13  5 17 14.9870000  0  5  4  7 11 20 28
  -7739381.10504  19465208.42904  -5999361.50845  19465209.58945
 -27554573.12907  17903069.22607 -21451656.73548  17903068.94148
 -11172801.97707  18124190.12407  -8695023.50448  18124189.51548
 -34005504.08607  17112277.81907 -26478650.50348  17112276.27348
 -37765276.37507  16527240.15507 -29410301.71048  16527238.02348
 04  2 13  5 17 29.9870000  0  5  4  7 11 20 28
  -7815538.82003  19450715.66303  -6058705.13345  19450717.69445
 -27618766.28507  17890853.64007 -21501677.35948  17890853.44148
 -11169184.01607  18124878.83507  -8692204.33548  18124877.90148
 -34051580.64507  17103509.73407 -26514554.29748  17103508.78048
 -37796603.51607  16521279.00707 -29434712.46448  16521276.34748
 04  2 13  5 17 44.9870000  0  5  4  7 11 20 28
  -7891639.09403  19436234.11603  -6118003.96545  19436235.98745
 -27682933.19107  17878643.38207 -21551677.53248  17878643.30848
 -11165531.55507  18125574.09307  -8689358.27548  18125572.19148
 -34097509.30107  17094769.36607 -26550342.85548  17094768.64848
 -37827782.93407  16515345.63207 -29459008.12548  16515343.61248
 04  2 13  5 17 59.9870000  0  5  4  7 11 20 28
  -7967682.30504  19421763.56904  -6177258.34045  19421764.70645
 -27747073.97707  17866437.76507 -21601657.34248  17866437.58548
 -11161844.89107  18126275.39807  -8686485.57848  18126273.90548
 -34143290.31607  17086057.85907 -26586016.36948  17086056.67548
 -37858814.84007  16509440.43707 -29483188.82648  16509438.45648
 04  2 13  5 18 14.9870000  0  5  4  7 11 20 28
  -8043667.69904  19407303.73404  -6236467.67245  19407305.16745
 -27811187.97307  17854237.25707 -21651616.27548  17854237.45248
 -11158123.77707  18126983.36607  -8683586.02747  18126981.79247
 -34188922.95307  17077374.27307 -26621574.24948  17077372.83948
 -37889698.60907  16503563.11607 -29507254.10048  16503561.34748
 04  2 13  5 18 29.9870000  0  5  4  7 11 20 28
  -8119595.49204  19392855.68704  -6295632.09445  19392857.03045
 -27875275.21507  17842041.92907 -21701554.37048  17842041.75348
 -11154368.67207  18127697.87407  -8680659.99447  18127696.58147
 -34234407.29307  17068719.24907 -26657016.57948  17068717.46848
 -37920434.38307  16497714.48407 -29531204.05148  16497712.90148
 04  2 13  5 18 44.9870000  0  5  4  7 11 20 28
  -8195465.50804  19378417.92904  -6354751.56045  19378419.45245
 -27939335.65607  17829851.71807 -21751471.58248  17829851.53848
 -11150579.68007  18128418.98407  -8677707.54948  18128417.79248
 -34279743.27707  17060092.23407 -26692343.31248  17060090.34348
 -37951022.12507  16491893.79607 -29555038.66448  16491892.17548
 04  2 13  5 18 59.9870000  0  5  4  7 11 20 28
  -8271277.85504  19363991.17904  -6413826.10345  19363992.99945
 -28003369.12107  17817666.16307 -21801367.77448  17817665.93348
 -11146757.02307  18129146.74907  -8674728.86848  18129145.34748
 -34324930.83207  17051493.26507 -26727554.37248  17051491.66348
 -37981461.80907  16486101.26507 -29578757.89848  16486099.70648
 04  2 13  5 19 14.9870000  0  5  4  7 11 20 28
  -8347032.61704  19349575.15504  -6472855.69046  19349576.76546
 -28067375.87907  17805486.46807 -21851243.14448  17805485.25348
 -11142901.14507  18129880.24907  -8671724.26448  18129878.94148
 -34369970.05107  17042922.50707 -26762649.84948  17042920.89048
 -38011753.85907  16480336.95207 -29602362.08648  16480335.57348
 04  2 13  5 19 29.9870000  0  5  4  7 11 20 28
  -8422729.90204  19335170.93704  -6531840.53445  19335172.61245
 -28131355.78107  17793311.05407 -21901097.61448  17793310.20648
 -11139012.35907  18130620.01507  -8668694.06648  18130619.30048
 -34414861.07807  17034379.57707 -26797629.86548  17034378.27648
 -38041898.25407  16474600.73407 -29625851.22648  16474599.09348
 04  2 13  5 19 44.9870000  0  5  4  7 11 20 28
  -8498368.90205  19320776.67105  -6590779.99746  19320779.50346
 -28195308.16407  17781141.34307 -21950930.62548  17781140.77348
 -11135090.23807  18131366.99107  -8665637.89948  18131365.44448
 -34459603.14107  17025865.33507 -26832493.79648  17025863.90148
 -38071894.45707  16468892.70207 -29649224.90548  16468890.52348
 04  2 13  5 19 59.9870000  0  5  4  7 11 20 28
  -8573949.94905  19306394.74905  -6649674.22446  19306396.63646
 -28259233.12907  17768976.51507 -22000742.26248  17768976.26948
 -11131135.23007  18132119.68707  -8662556.08948  18132118.44448
 -34504196.33607  17017379.44407 -26867241.70848  17017378.23748
 -38101742.67607  16463212.66307 -29672483.25548  16463210.82348
 04  2 13  5 20 14.9870000  0  5  4  7 11 20 28
  -8649472.82805  19292022.67105  -6708523.20446  19292025.01146
 -28323130.58607  17756817.51507 -22050532.46848  17756817.55448
 -11127147.57807  18132878.26507  -8659448.83748  18132876.80448
 -34548640.71507  17008921.92907 -26901873.66148  17008921.12448
 -38131442.91407  16457560.98407 -29695626.28848  16457558.94448
 04  2 13  5 20 29.9870000  0  5  4  7 11 20 28
  -8724937.18405  19277662.30405  -6767326.55646  19277664.66346
 -28386999.98807  17744663.64807 -22100300.83248  17744663.77348
 -11123127.01207  18133643.53807  -8656315.95048  18133641.92548
 -34592935.77707  17000493.35907 -26936389.28948  17000492.02648
 -38160994.72307  16451937.41307 -29718653.68548  16451934.98448
 04  2 13  5 20 44.9870000  0  5  4  7 11 20 28
  -8800343.34405  19263313.35105  -6826084.51846  19263315.45246
 -28450841.72307  17732514.92907 -22150047.62348  17732514.68748
 -11119074.22307  18134414.67907  -8653157.95348  18134413.26148
 -34637081.87907  16992092.44407 -26970788.82648  16992091.17148
 -38190398.54707  16446341.85107 -29741565.76148  16446339.65548
 04  2 13  5 20 59.9870000  0  5  4  7 11 20 28
  -8875691.35505  19248974.08505  -6884797.22746  19248976.45646
 -28514655.73807  17720371.42907 -22199772.81748  17720370.87448
 -11114989.45707  18135191.83507  -8649975.02148  18135190.40548
 -34681079.00007  16983720.34307 -27005072.28348  16983719.01148
 -38219654.39107  16440774.53807 -29764362.52448  16440772.56648
 04  2 13  5 21 14.9870000  0  5  4  7 11 20 28
  -8950980.88305  19234647.10905  -6943464.35346  19234649.96046
 -28578441.66807  17708233.64807 -22249476.13748  17708232.76948
 -11110872.68407  18135975.24107  -8646767.15248  18135974.24948
 -34724926.80107  16975376.04607 -27039239.37448  16975375.24148
 -38248762.26207  16435235.49907 -29787043.99248  16435233.23448
 04  2 13  5 21 29.9870000  0  5  4  7 11 20 28
  -9026212.28505  19220332.20205  -7002086.20245  19220332.85545
 -28642199.82007  17696100.51507 -22299157.80048  17696100.11648
 -11106724.49607  18136764.61607  -8643534.83048  18136763.40948
 -34768625.65207  16967060.59307 -27073290.41548  16967059.97248
 -38277722.37107  16429724.71807 -29809610.32148  16429722.74548
 04  2 13  5 21 44.9870000  0  5  4  7 11 20 28
  -9101385.35905  19206026.70205  -7060662.58146  19206027.45646
 -28705930.03107  17683973.07707 -22348817.69248  17683972.91348
 -11102545.05107  18137559.98407  -8640278.13548  18137558.64848
 -34812175.49207  16958773.16307 -27107225.34148  16958772.12848
 -38306534.75007  16424241.95207 -29832061.54148  16424239.92548
 04  2 13  5 21 59.9870000  0  5  4  7 11 20 28
  -9176500.00805  19191732.90505  -7119193.35845  19191733.05045
 -28769631.87107  17671850.99107 -22398455.46448  17671851.01948
 -11098334.28107  18138361.30407  -8636997.03148  18138360.24548
 -34855575.90607  16950514.34307 -27141043.83348  16950513.33548
 -38335199.09007  16418787.61607 -29854397.39648  16418785.18748
 04  2 13  5 22 14.9870000  0  5  4  7 11 20 28
  -9251555.30906  19177449.56206  -7177678.01645  19177449.43745
 -28833304.62907  17659734.54607 -22448070.58548  17659734.71048
 -11094091.76607  18139168.87407  -8633691.16848  18139167.93748
 -34898826.16007  16942284.39007 -27174745.31848  16942282.87848
 -38363714.81607  16413361.22607 -29876617.44948  16413359.38648
 04  2 13  5 22 29.9870000  0  5  4  7 11 20 28
  -9326551.86305  19163178.34305  -7236116.83545  19163177.58945
 -28896948.71907  17647623.39807 -22497663.38848  17647623.28448
 -11089818.08207  18139981.69407  -8630361.06548  18139981.10548
 -34941926.67207  16934082.33507 -27208330.11548  16934080.87848
 -38392082.46507  16407962.31907 -29898722.12148  16407961.22248
 04  2 13  5 22 44.9870000  0  5  4  7 11 20 28
  -9401489.14105  19148918.68705  -7294509.50645  19148918.13645
 -28960563.55507  17635518.15507 -22547233.36948  17635517.62848
 -11085513.27307  18140801.21807  -8627006.68548  18140800.91348
 -34984877.09007  16925909.06907 -27241797.95648  16925907.71048
 -38420301.64807  16402592.72607 -29920711.09348  16402591.13248
 04  2 13  5 22 59.9870000  0  5  4  7 11 20 28
  -9476367.47705  19134669.59305  -7352856.26646  19134670.46446
 -29024149.46107  17623418.02307 -22596780.80748  17623417.31948
 -11081177.79707  18141626.20207  -8623628.38848  18141626.29248
 -35027677.69507  16917764.64007 -27275149.06848  16917762.79248
 -38448372.67207  16397251.15507 -29942584.60648  16397249.73748
 04  2 13  5 23 14.9860000  0  5  4  7 11 20 28
  -9551181.80905  19120432.75205  -7411153.08046  19120435.62346
 -29087701.86707  17611324.40807 -22646302.15748  17611324.21748
 -11076811.98807  18142456.86107  -8620226.47348  18142456.38948
 -35070325.51607  16909648.72107 -27308381.11048  16909647.46748
 -38476293.71107  16391937.87707 -29964341.28348  16391936.19048
 04  2 13  5 23 29.9860000  0  5  4  7 11 20 28
  -9625941.97705  19106206.86905  -7469407.74646  19106209.24846
 -29151229.37507  17599235.15807 -22695804.09448  17599235.42048
 -11072415.58607  18143293.55707  -8616800.74048  18143292.47148
 -35112826.23007  16901561.12707 -27341498.54248  16901559.96748
 -38504068.57407  16386652.51007 -29985984.04048  16386651.02648
 04  2 13  5 23 44.9860000  0  5  4  7 11 20 28
  -9700642.98405  19091991.94005  -7527616.26246  19091994.41246
 -29214727.45307  17587152.01807 -22745283.09748  17587152.21748
 -11067989.04707  18144136.22907  -8613351.51248  18144134.81548
 -35155176.88307  16893502.09607 -27374499.05648  16893500.75248
 -38531695.35907  16381395.54107 -30007511.41748  16381393.50248
 04  2 13  5 23 59.9860000  0  5  4  7 11 20 28
  -9775284.62105  19077786.92405  -7585778.54545  19077789.74845
 -29278195.97307  17575074.47907 -22794739.06648  17575074.02948
 -11063532.42607  18144984.26807  -8609878.83748  18144982.71748
 -35197377.30907  16885471.82207 -27407382.48648  16885469.89748
 -38559173.98007  16376166.76007 -30028923.32748  16376164.81148
 04  2 13  5 24 14.9860000  0  5  4  7 11 20 28
  -9849867.03905  19063594.32205  -7643894.69145  19063596.69745
 -29341634.85507  17563002.63507 -22844171.95548  17563002.20548
 -11059046.01207  18145837.94707  -8606382.96247  18145836.31847
 -35239427.57807  16877470.00207 -27440148.92848  16877467.77948
 -38586504.60207  16370965.53307 -30050219.92048  16370963.88148
 04  2 13  5 24 29.9860000  0  5  4  7 11 20 28
  -9924389.88304  19049413.31504  -7701964.35945  19049415.69745
 -29405043.79707  17550936.51807 -22893581.52348  17550935.77948
 -11054529.68007  18146697.10407  -8602863.75648  18146695.88948
 -35281327.43007  16869496.31507 -27472798.16948  16869494.58048
 -38613687.07807  16365792.98607 -30071401.09248  16365791.23348
 04  2 13  5 24 44.9860000  0  5  4  7 11 20 28
  -9998852.89803  19035243.68203  -7759987.46145  19035245.31145
 -29468422.49607  17538875.69707 -22942967.50848  17538875.58848
 -11049983.58607  18147562.15107  -8599321.35847  18147560.96347
 -35323076.62907  16861551.88507 -27505329.99748  16861549.67848
 -38640721.08607  16360648.43207 -30092466.55048  16360646.59648
 04  2 13  5 24 59.9860000  0  5  4  7 11 20 28
 -10073256.23804  19021084.74404  -7817963.99645  19021086.47545
 -29531770.94107  17526820.83807 -22992329.90948  17526820.59648
 -11045408.00807  18148432.86107  -8595755.98847  18148431.66647
 -35364675.36707  16853636.01007 -27537744.60248  16853633.80348
 -38667606.92207  16355532.54107 -30113416.56348  16355530.49848
 04  2 13  5 25 14.9860000  0  5  4  7 11 20 28
 -10147599.43804  19006937.58804  -7875893.72345  19006939.31845
 -29595088.72307  17514771.95507 -23041668.41348  17514771.24048
 -11040802.93406  18149309.33006  -8592167.63747  18149308.09647
 -35406123.16407  16845748.54907 -27570041.57848  16845746.57248
 -38694344.22707  16350444.34607 -30134250.82448  16350442.51448
 04  2 13  5 25 29.9860000  0  5  4  7 11 20 28
 -10221882.23405  18992802.59605  -7933776.41845  18992803.70145
 -29658375.32007  17502728.32207 -23090982.63448  17502728.57248
 -11036168.11306  18150191.27606  -8588556.10547  18150190.08447
 -35447419.63307  16837889.88507 -27602220.64148  16837888.34248
 -38720932.73407  16345385.01807 -30154969.14548  16345382.43648
 04  2 13  5 25 44.9860000  0  5  4  7 11 20 28
 -10296105.01605  18978678.73605  -7991612.30145  18978679.17445
 -29721631.21507  17490691.19007 -23140272.92248  17490691.06148
 -11031504.12506  18151079.06506  -8584921.84147  18151078.40847
 -35488565.18407  16830060.35407 -27634282.10248  16830058.04148
 -38747372.97307  16340353.22107 -30175571.93048  16340351.16248
 04  2 13  5 25 59.9860000  0  5  4  7 11 20 28
 -10370267.44505  18964565.72905  -8049401.19145  18964566.15145
 -29784856.12507  17478659.89307 -23189539.04448  17478660.05348
 -11026811.10906  18151971.69006  -8581264.96547  18151971.36947
 -35529559.67207  16822259.36907 -27666225.85248  16822257.94748
 -38773664.85507  16335350.17407 -30196059.12048  16335347.59248
 04  2 13  5 26 14.9860000  0  5  4  7 11 20 28
 -10444369.50005  18950465.63505  -8107142.98546  18950465.52246
 -29848049.73007  17466635.01007 -23238780.79948  17466634.47548
 -11022089.25006  18152870.48606  -8577585.61748  18152869.91648
 -35570402.99607  16814487.22107 -27698051.80648  16814486.11548
 -38799808.33207  16330375.17407 -30216430.67248  16330372.95148
 04  2 13  5 26 29.9860000  0  5  4  7 11 20 28
 -10518411.03506  18936375.32206  -8164837.65246  18936376.69346
 -29911211.81607  17454615.47107 -23287997.99548  17454615.25648
 -11017338.53906  18153774.97106  -8573883.77448  18153773.89748
 -35611095.06307  16806743.64307 -27729759.91048  16806742.56148
 -38825803.21507  16325428.59607 -30236686.43648  16325426.40448
